,R_COUNTRY,R_ADDR,R_CITY,R_STATE,R_COUNTY,ADDRESS,GEO,lat,long
0,UNITED STATES,3000 C STREET STE 301,ANCHORAGE,ALASKA,ANCHORAGE,"3000 C STREET STE 301, ANCHORAGE, ALASKA","Anchorage, Alaska, 99501, United States",61.2163129,-149.894852
1,UNITED STATES,1800 CARILLION BLVD,CINCINNATI,Ohio,HAMILTON,"1800 CARILLION BLVD, CINCINNATI, Ohio","Cincinnati, Hamilton County, Ohio, United States",39.1014537,-84.5124602
2,UNITED STATES,3311 W STATE ST,BOISE,IDAHO,ADA,"3311 W STATE ST, BOISE, IDAHO","Idaho Transportation Department and Law Enforcement, 3311, West State Street, North End, Boise, Ada County, Idaho, 83703, United States",43.63513775,-116.23090013172964
3,UNITED STATES,2401 COLONIAL DR,HELENA,MONTANA,LEWIS AND CLARK,"2401 COLONIAL DR, HELENA, MONTANA","Colonial Drive, Helena, Lewis and Clark County, Montana, 59604, United States",46.5727032,-111.9763437
4,UNITED STATES,2400 N LINCOLN BLVD,OKLAHOMA CITY,OKLAHOMA,OKLAHOMA,"2400 N LINCOLN BLVD, OKLAHOMA CITY, OKLAHOMA","2400, North Lincoln Boulevard, Oklahoma City, Oklahoma County, Oklahoma, 73105, United States",35.494713,-97.5054555
5,UNITED STATES,288 RHEEM BLVD,MORAGA,CALIFORNIA,CONTRA COSTA,"288 RHEEM BLVD, MORAGA, CALIFORNIA","288, Rheem Boulevard, Rheem Valley, Moraga, Contra Costa County, California, 94556, United States",37.86340690738063,-122.13398103411726
6,UNITED STATES,523 NIOBRARA AVENUE,HEMINGFORD,NEBRASKA,BOX BUTTE,"523 NIOBRARA AVENUE, HEMINGFORD, NEBRASKA","Hemingford, Box Butte County, Nebraska, United States",42.3215777,-103.0728713
7,UNITED STATES,405 N HOGAN RD,MONMOUTH,OREGON,POLK,"405 N HOGAN RD, MONMOUTH, OREGON","Hogan Road, Monmouth, Polk County, Oregon, 97351, United States",44.8518834,-123.2197196
8,UNITED STATES,204 WEST MAIN STREET,HINTON,OKLAHOMA,CADDO,"204 WEST MAIN STREET, HINTON, OKLAHOMA","West Main Street, Hinton, Caddo County, Oklahoma, 73047, United States",35.471428,-98.357985
9,UNITED STATES,777 CANAL VIEW BLVD,ROCHESTER,NEW YORK,MONROE,"777 CANAL VIEW BLVD, ROCHESTER, NEW YORK","777, Canal View Boulevard, City of Rochester, Monroe County, New York, 14623, United States",43.09788845,-77.58775372814958
10,UNITED STATES,1000 ASSEMBLY ST,COLUMBIA,SOUTH CAROLINA,RICHLAND,"1000 ASSEMBLY ST, COLUMBIA, SOUTH CAROLINA","Rembert Dennis Building, 1000, Assembly Street, The Vista, Columbia, Richland County, South Carolina, 29201, United States",33.998987299999996,-81.03338095726939
11,UNITED STATES,3951 WESTERRE PKWY,HENRICO,VIRGINIA,HENRICO,"3951 WESTERRE PKWY, HENRICO, VIRGINIA","Tridium, 3951, Westerre Parkway, Erin Shades, Short Pump, Henrico County, Virginia, 23233, United States",37.6441718,-77.5759518
12,UNITED STATES,6702 BROADWAY ST,GALVESTON,TEXAS,GALVESTON,"6702 BROADWAY ST, GALVESTON, TEXAS","6702, Broadway Street, Galveston, Galveston County, Texas, 77554, United States",29.289126504679775,-94.8454002838994
13,UNITED STATES,12975 WORLDGATE DR STE 2413,HERNDON,VIRGINIA,FAIRFAX,"12975 WORLDGATE DR STE 2413, HERNDON, VIRGINIA","Herndon, Fairfax County, Virginia, 20170, United States",38.9695316,-77.3859479
14,UNITED STATES,600 KAPIOLANI BLVD STE 302,HONOLULU,HAWAII,HONOLULU,"600 KAPIOLANI BLVD STE 302, HONOLULU, HAWAII","Honolulu, Honolulu County, Hawaii, 96813, United States",21.304547,-157.855676
15,UNITED STATES,1840 NE 10TH AVE,PAYETTE,IDAHO,PAYETTE,"1840 NE 10TH AVE, PAYETTE, IDAHO","1840, Northeast 10th Avenue, Payette, Payette County, Idaho, 83661, United States",44.057814,-116.92075
16,UNITED STATES,397 WEST AVE,STAMFORD,CONNECTICUT,FAIRFIELD,"397 WEST AVE, STAMFORD, CONNECTICUT","397, West Avenue, Stamford, Fairfield County, Connecticut, 06902, United States",41.0396422,-73.5599131
17,UNITED STATES,8300 BOONE BLVD STE 800,TYSONS CORNER,VIRGINIA,FAIRFAX,"8300 BOONE BLVD STE 800, TYSONS CORNER, VIRGINIA","Tysons, Fairfax County, Virginia, United States",38.916509000000005,-77.2257977704366
18,UNITED STATES,747 OHIO AVE,LONG BEACH,CALIFORNIA,LOS ANGELES,"747 OHIO AVE, LONG BEACH, CALIFORNIA","747, Ohio Avenue, Long Beach, Los Angeles County, CAL Fire Southern Region, California, 90804, United States",33.77619353061225,-118.16014940816326
19,UNITED STATES,22833 SE BLACK NUGGET RD STE 130,ISSAQUAH,WASHINGTON,KING,"22833 SE BLACK NUGGET RD STE 130, ISSAQUAH, WASHINGTON","Issaquah, King County, Washington, 98029, United States",47.5348778,-122.0432974
20,UNITED STATES,5540 TECH CENTER DR SUITE 100,COLORADO SPRINGS,COLORADO,EL PASO,"5540 TECH CENTER DR SUITE 100, COLORADO SPRINGS, COLORADO","Colorado Springs, El Paso County, Colorado, 80903, United States",38.8339578,-104.825348
21,UNITED STATES,5460 VILLAGE DR,ROCKLEDGE,FLORIDA,BREVARD,"5460 VILLAGE DR, ROCKLEDGE, FLORIDA","Rockledge, Brevard County, Florida, 32955, United States",28.3201553,-80.736647
22,UNITED STATES,5565 GLENRIDGE CONNECTOR STE 1800,ATLANTA,GEORGIA,FULTON,"5565 GLENRIDGE CONNECTOR STE 1800, ATLANTA, GEORGIA","Atlanta, Fulton County, Georgia, 30303, United States",33.7489924,-84.3902644
23,UNITED STATES,100 LINCOLN RD,MIAMI BEACH,FLORIDA,MIAMI-DADE,"100 LINCOLN RD, MIAMI BEACH, FLORIDA","100, Lincoln Road, Miami Beach, Miami-Dade County, Florida, 33139, United States",25.7904504,-80.1290267
24,UNITED STATES,6201 FOUNTAIN AVE APT 205,LOS ANGELES,CALIFORNIA,LOS ANGELES,"6201 FOUNTAIN AVE APT 205, LOS ANGELES, CALIFORNIA","Los Angeles, Los Angeles County, CAL Fire Southern Region, California, United States",34.0536909,-118.242766
25,UNITED STATES,150 HOWELL RD,TYRONE,GEORGIA,FAYETTE,"150 HOWELL RD, TYRONE, GEORGIA","Tyrone, Fayette County, Georgia, 30290, United States",33.4713249,-84.5972005
26,UNITED STATES,16024 MANCHESTER RD STE 200,ELLISVILLE,MISSOURI,ST. LOUIS,"16024 MANCHESTER RD STE 200, ELLISVILLE, MISSOURI","Ellisville, Saint Louis County, Missouri, United States",38.5946373,-90.584838
27,UNITED STATES,325 GRAND AVE,DES MOINES,IOWA,POLK,"325 GRAND AVE, DES MOINES, IOWA","325, Grand Avenue, West Des Moines, Polk County, Iowa, 50265, United States",41.58277023489933,-93.70596037583893
28,UNITED STATES,8161 MAPLE LAWN BLVD STE 150,FULTON,MARYLAND,HOWARD,"8161 MAPLE LAWN BLVD STE 150, FULTON, MARYLAND","Fulton, Howard County, Maryland, 20759, United States",39.1509408,-76.9230307
29,UNITED STATES,1007 DILLINGHAM BLVD #205,HONOLULU,HAWAII,HONOLULU,"1007 DILLINGHAM BLVD #205, HONOLULU, HAWAII","1007, Dillingham Boulevard, Iwilei, Honolulu, Honolulu County, Hawaii, 96817, United States",21.320855540487003,-157.87126392828807
30,UNITED STATES,2275 MANYA ST,SAN DIEGO,CALIFORNIA,SAN DIEGO,"2275 MANYA ST, SAN DIEGO, CALIFORNIA","2275, Manya Street, Palm City, San Diego, San Diego County, California, 92154, United States",32.59318595,-117.08589775646894
31,UNITED STATES,2000 HOLIDAY DR STE 500,CHARLOTTESVILLE,VIRGINIA,CHARLOTTESVILLE (CITY),"2000 HOLIDAY DR STE 500, CHARLOTTESVILLE, VIRGINIA","Charlottesville, Virginia, United States",38.029306,-78.4766781
32,UNITED STATES,21 JOSHUA RD,SARATOGA SPRINGS,NEW YORK,SARATOGA,"21 JOSHUA RD, SARATOGA SPRINGS, NEW YORK","21, Joshua Road, City of Saratoga Springs, Saratoga County, New York, 12866, United States",43.0641992,-73.783127
33,UNITED STATES,36570 BRIGGS RD,MURRIETA,CALIFORNIA,RIVERSIDE,"36570 BRIGGS RD, MURRIETA, CALIFORNIA","Briggs Road, Ironwoood, Mahogany Hills, Murrieta, Riverside County, California, 92563, United States",33.6147456,-117.1356504
34,UNITED STATES,4444 DECATUR BLVD STE 100,INDIANAPOLIS,INDIANA,MARION,"4444 DECATUR BLVD STE 100, INDIANAPOLIS, INDIANA","Indianapolis, Marion County, Indiana, United States",39.7683331,-86.1583502
35,UNITED STATES,11560 GREAT OAKS WAY STE 200,ALPHARETTA,GEORGIA,FULTON,"11560 GREAT OAKS WAY STE 200, ALPHARETTA, GEORGIA","Alpharetta, Fulton County, Georgia, United States",34.0709576,-84.2747329
36,UNITED STATES,1195 HOME AVE,AKRON,OHIO,SUMMIT,"1195 HOME AVE, AKRON, OHIO","1195, Home Avenue, Forest Hill, Bettes Corners, Akron, Summit County, Ohio, 44310, United States",41.10440292287877,-81.48790828104515
37,UNITED STATES,1951 LASALLE WAY,MARIETTA,GEORGIA,COBB,"1951 LASALLE WAY, MARIETTA, GEORGIA","Marietta, Cobb County, Georgia, United States",33.9528472,-84.5496148
38,UNITED STATES,1810 MURRAY RD,MCKINLEYVILLE,CALIFORNIA,HUMBOLDT,"1810 MURRAY RD, MCKINLEYVILLE, CALIFORNIA","Murray Road, McKinleyville, Humboldt County, California, 95519, United States",40.9562619,-124.1157852
39,UNITED STATES,1235 N LOOP W STE 1200,HOUSTON,TEXAS,HARRIS,"1235 N LOOP W STE 1200, HOUSTON, TEXAS","Houston, Harris County, Texas, United States",29.7589382,-95.3676974
40,UNITED STATES,14839 NW GOLDFINCH LN,SEABECK,WASHINGTON,KITSAP,"14839 NW GOLDFINCH LN, SEABECK, WASHINGTON","Seabeck Creek, Kitsap County, Washington, 98380, United States",47.6101945,-122.8529074
41,UNITED STATES,1005 S 60TH ST,MILWAUKEE,WISCONSIN,MILWAUKEE,"1005 S 60TH ST, MILWAUKEE, WISCONSIN","1003,1005, South 60th Street, Liberty Heights Park, Six Points, Liberty Heights Park, West Allis, Milwaukee County, Wisconsin, 53214, United States",43.0207341,-87.98783943018071
42,UNITED STATES,160 S TERRACE AVE,MOUNT VERNON,NEW YORK,WESTCHESTER,"160 S TERRACE AVE, MOUNT VERNON, NEW YORK","160, South Terrace Avenue, West Mount Vernon, City of Mount Vernon, Westchester County, New York, 10550, United States",40.90978413398876,-73.85015366758448
43,UNITED STATES,7980 TURIN RD,ROME,NEW YORK,ONEIDA,"7980 TURIN RD, ROME, NEW YORK","New York, 1/a, Via dell'Aquila Reale, Municipio Roma VI, Roma, Roma Capitale, Lazio, 00169, Italia",41.8662197,12.5965102
44,UNITED STATES,7 WINCHESTER CT,MAULDIN,SOUTH CAROLINA,GREENVILLE,"7 WINCHESTER CT, MAULDIN, SOUTH CAROLINA","7, Winchester Court, Mauldin, Greenville County, South Carolina, 29662, United States",34.77190024504028,-82.30257428049072
45,UNITED STATES,1171 APPLE RD,QUAKERTOWN,PENNSYLVANIA,BUCKS,"1171 APPLE RD, QUAKERTOWN, PENNSYLVANIA","Quakertown, Bucks County, Pennsylvania, 18951, United States",40.4417682,-75.3415667
46,UNITED STATES,7900 WESTPARK DR STE A160,MCLEAN,VIRGINIA,FAIRFAX,"7900 WESTPARK DR STE A160, MCLEAN, VIRGINIA","McLean, Fairfax County, Virginia, 22101, United States",38.9318369,-77.1671337963356
47,UNITED STATES,1051 N MAIN ST STE A,LOMBARD,ILLINOIS,DUPAGE,"1051 N MAIN ST STE A, LOMBARD, ILLINOIS","Lombard, DuPage County, Illinois, 60148, United States",41.8864687,-88.0201536
48,UNITED STATES,7040 VIRGINIA MANOR ROAD,BELTSVILLE,MARYLAND,PRINCE GEORGE'S,"7040 VIRGINIA MANOR ROAD, BELTSVILLE, MARYLAND","Beltsville, Prince George's County, Maryland, 20705, United States",39.039773499999995,-76.92718505662606
49,UNITED STATES,990 N 8000 W,MENDON,UTAH,CACHE,"990 N 8000 W, MENDON, UTAH","Autonomous Solutions Inc., 990 N, West 600 North, Mendon, Cache County, Utah, 84325, United States",41.74754795,-112.0233617226371
50,UNITED STATES,2211 E SPRAGUE AVE,SPOKANE,WASHINGTON,SPOKANE,"2211 E SPRAGUE AVE, SPOKANE, WASHINGTON","2211, East Sprague Avenue, East Central, Spokane, Spokane County, Washington, 99202, United States",47.65735396937303,-117.37793067523675
51,UNITED STATES,7420 CENTRAL BUSINESS PARK DR STE 3,NORFOLK,VIRGINIA,NORFOLK (CITY),"7420 CENTRAL BUSINESS PARK DR STE 3, NORFOLK, VIRGINIA","Norfolk, Virginia, United States",36.8968052,-76.2602336
52,UNITED STATES,3218 THEODORE R HAGANS DR NE,WASHINGTON,DISTRICT OF COLUMBIA,DISTRICT OF COLUMBIA,"3218 THEODORE R HAGANS DR NE, WASHINGTON, DISTRICT OF COLUMBIA","3218, Theodore R Hagans Drive Northeast, Fort Lincoln, Washington, District of Columbia, 20018, United States",38.9229946,-76.9611602935856
53,UNITED STATES,PR 1 KM 27.1 RAMAL 798 BO. LA CHANGA,CAGUAS,PUERTO RICO,CAGUAS,"PR 1 KM 27.1 RAMAL 798 BO. LA CHANGA, CAGUAS, PUERTO RICO","Caguas, Puerto Rico, United States",18.2345399,-66.0351316
54,UNITED STATES,200 WASHINGTON AVE,LA PLATA,MARYLAND,CHARLES,"200 WASHINGTON AVE, LA PLATA, MARYLAND","Washington Avenue, La Plata, Charles County, Maryland, 20646, United States",38.5501742,-76.9783734
55,UNITED STATES,197 N MAIN ST UNIT 1,BOSCAWEN,NEW HAMPSHIRE,MERRIMACK,"197 N MAIN ST UNIT 1, BOSCAWEN, NEW HAMPSHIRE","Boscawen, Merrimack County, New Hampshire, 03303, United States",43.315187,-71.621246
56,UNITED STATES,1155 PARK AVE,EMERYVILLE,CALIFORNIA,ALAMEDA,"1155 PARK AVE, EMERYVILLE, CALIFORNIA","1155, Park Avenue, Emeryville, Alameda County, CAL Fire Northern Region, California, 94608, United States",37.83197649326557,-122.28168681365943
57,UNITED STATES,200 W NAKOMA,SAN ANTONIO,TEXAS,BEXAR,"200 W NAKOMA, SAN ANTONIO, TEXAS","East Nakoma Drive, San Antonio, Bexar County, Texas, 78216, United States",29.5493488,-98.4887122
58,UNITED STATES,952 JUPITER PARK LN,JUPITER,FLORIDA,PALM BEACH,"952 JUPITER PARK LN, JUPITER, FLORIDA","952, Jupiter Park Lane, Jupiter, Palm Beach County, Florida, 33458, United States",26.925481503828053,-80.14375165797313
59,UNITED STATES,278 SOUTH MARINE CORPS DR SE,TAMUNING,GUAM,GUAM,"278 SOUTH MARINE CORPS DR SE, TAMUNING, GUAM","Tamuning, Tamuning Municipality, Guam, United States",13.4937451,144.7773816703125
60,UNITED STATES,525 FURNACE HILLS PIKE,LITITZ,PENNSYLVANIA,LANCASTER,"525 FURNACE HILLS PIKE, LITITZ, PENNSYLVANIA","Lititz, Lancaster County, Pennsylvania, 17543, United States",40.1571252,-76.3072103
61,UNITED STATES,388 C W HWY 264,SAINT MICHAELS,ARIZONA,APACHE,"388 C W HWY 264, SAINT MICHAELS, ARIZONA","Saint Michaels / Tsʼíhootso, Fort Defiance Agency / Tséhootsooí  Bił Hahoodzo biyiʼdi, Apache County, Arizona, 86511, United States",35.6512365,-109.0937302
62,UNITED STATES,4414 CENTERVIEW DR STE 167,SAN ANTONIO,TEXAS,BEXAR,"4414 CENTERVIEW DR STE 167, SAN ANTONIO, TEXAS","San Antonio, Bexar County, Texas, United States",29.4246002,-98.4951405
63,UNITED STATES,10889 WILSHIRE BLVD STE 700,LOS ANGELES,CALIFORNIA,LOS ANGELES,"10889 WILSHIRE BLVD STE 700, LOS ANGELES, CALIFORNIA","Los Angeles, Los Angeles County, CAL Fire Southern Region, California, United States",34.0536909,-118.242766
64,UNITED STATES,456 E PARADISE,OREM,UTAH,UTAH,"456 E PARADISE, OREM, UTAH","North Paradise Drive, Orem, Utah County, Utah, 84097, United States",40.2981328,-111.6805983
65,UNITED STATES,100 ENERGY WAY STE 1500,FORT WORTH,TEXAS,TARRANT,"100 ENERGY WAY STE 1500, FORT WORTH, TEXAS","Fort Worth, Tarrant County, Texas, United States",32.753177,-97.3327459
66,UNITED STATES,6600 COLLEGE BLVD STE 300,OVERLAND PARK,KANSAS,JOHNSON,"6600 COLLEGE BLVD STE 300, OVERLAND PARK, KANSAS","Overland Park, Johnson County, Kansas, United States",38.9742502,-94.6851702
67,UNITED STATES,156 FAMILY FARM RD,LOCKPORT,LOUISIANA,LAFOURCHE,"156 FAMILY FARM RD, LOCKPORT, LOUISIANA","Lockport, Lafourche Parish, Louisiana, United States",29.6460467,-90.5392524
68,UNITED STATES,3229 OLD MISSION RD,BLUFF,UTAH,SAN JUAN,"3229 OLD MISSION RD, BLUFF, UTAH","Bluff, San Juan County, Utah, 84512, United States",37.28401,-109.5529121
69,UNITED STATES,42487 COMPLEX BLVD,PABLO,MONTANA,LAKE,"42487 COMPLEX BLVD, PABLO, MONTANA","Pablo, Willow Wynn Trailer Park, Lake County, Montana, 59855, United States",47.598586499999996,-114.11322100089468
70,UNITED STATES,P.O. BOX 66,MEKORYUK,ALASKA,BETHEL (CA),"P.O. BOX 66, MEKORYUK, ALASKA","Mekoryuk, Unorganized Borough, Alaska, United States",60.3880556,-166.185
71,UNITED STATES,14732 S MAPLE AVE,GARDENA,CALIFORNIA,LOS ANGELES,"14732 S MAPLE AVE, GARDENA, CALIFORNIA","Gardena, Los Angeles County, California, United States",33.8963593,-118.3053037
72,UNITED STATES,1370 LEVEE RD,MEMPHIS,TENNESSEE,SHELBY,"1370 LEVEE RD, MEMPHIS, TENNESSEE","1370, Levee Road, New Chelsea, Memphis, Shelby County, West Tennessee, Tennessee, 38108, United States",35.18088218254982,-90.01652380716097
73,UNITED STATES,355 VAN NESS AVE STE 200,TORRANCE,CALIFORNIA,LOS ANGELES,"355 VAN NESS AVE STE 200, TORRANCE, CALIFORNIA","Torrance, Los Angeles County, California, United States",33.8358492,-118.3406288
74,UNITED STATES,1203 N RIVERSIDE AVE,MEDFORD,OREGON,JACKSON,"1203 N RIVERSIDE AVE, MEDFORD, OREGON","1203, North Riverside Avenue, Medford, Jackson County, Oregon, 97501, United States",42.3380853877551,-122.87601383673469
75,UNITED STATES,401 N W ST,JACKSON,Mississippi,HINDS,"401 N W ST, JACKSON, Mississippi","401, North West Street, Jackson, Hinds County, Mississippi, 39201, United States",32.303745,-90.183471
76,UNITED STATES,15955 NW 120TH ST,PLATTE CITY,MISSOURI,PLATTE,"15955 NW 120TH ST, PLATTE CITY, MISSOURI","15955, Northwest 120th Street, Kansas City, Platte County, Missouri, 64153, United States",39.30620612075623,-94.73294654589485
77,UNITED STATES,306 EUREKA AVE,BERRYVILLE,ARKANSAS,CARROLL,"306 EUREKA AVE, BERRYVILLE, ARKANSAS","306, Eureka Avenue, Berryville, Carroll County, Arkansas, 72616, United States",36.36714435962672,-93.57115624386043
78,UNITED STATES,12409 NW 35TH ST,CORAL SPRINGS,FLORIDA,BROWARD,"12409 NW 35TH ST, CORAL SPRINGS, FLORIDA","12409, Northwest 35th Street, Coral Springs, Broward County, Florida, 33065, United States",26.274475790819803,-80.29267572436373
79,UNITED STATES,1500 W BUSINESS 20,STANTON,TEXAS,MARTIN,"1500 W BUSINESS 20, STANTON, TEXAS","Stanton, Martin County, Texas, 79782, United States",32.1292891,-101.788464
80,UNITED STATES,719 W 3RD ST,DORRIS,CALIFORNIA,SISKIYOU,"719 W 3RD ST, DORRIS, CALIFORNIA","719, West 3rd Street, Dorris, Siskiyou County, CAL Fire Northern Region, California, 96023, United States",41.96426268331994,-121.92562806598275
81,UNITED STATES,3467 TOWNSHIP LINE RD,POPLAR BLUFF,MISSOURI,BUTLER,"3467 TOWNSHIP LINE RD, POPLAR BLUFF, MISSOURI","Poplar Bluff, Butler County, Missouri, 63901, United States",36.7568327,-90.3957115
82,UNITED STATES,CARR #2 KM 119.2,AGUADILLA,PUERTO RICO,AGUADILLA,"CARR #2 KM 119.2, AGUADILLA, PUERTO RICO","Supermercados Selectos Aguadilla, PR 125 KM 19.0 SAN SEBASTIAN, PUERTO RICO, 125, Borinquen, Calle Villa Matías, Borinquen, Aguadilla, Puerto Rico, 00605, United States",18.4686803,-67.1544517
83,UNITED STATES,1343 N PRESTON HWY STE 1,KINGWOOD,WEST VIRGINIA,PRESTON,"1343 N PRESTON HWY STE 1, KINGWOOD, WEST VIRGINIA","Kingwood, Preston County, West Virginia, 26537, United States",39.4717557,-79.6833884
84,UNITED STATES,1231 LOUISVILLE ROAD,FRANKFORT,KENTUCKY,FRANKLIN,"1231 LOUISVILLE ROAD, FRANKFORT, KENTUCKY","1231, Louisville Road, Frankfort, Franklin County, Kentucky, 40601, United States",38.177926,-84.900028
85,UNITED STATES,10110 W LILAC RD,ESCONDIDO,CALIFORNIA,SAN DIEGO,"10110 W LILAC RD, ESCONDIDO, CALIFORNIA","Escondido, San Diego County, California, United States",33.1216751,-117.0814849
86,UNITED STATES,30567 LE BLEU RD,EUGENE,OREGON,LANE,"30567 LE BLEU RD, EUGENE, OREGON","Eugene, Lane County, Oregon, United States",44.0505054,-123.0950506
87,UNITED STATES,700 NE MULTNOMAH ST,PORTLAND,OREGON,MULTNOMAH,"700 NE MULTNOMAH ST, PORTLAND, OREGON","Cafe 700, 700, Northeast Multnomah Street, Lloyd District, Portland, Multnomah County, Oregon, 97232, United States",45.5311217,-122.6581448
88,UNITED STATES,ONE LANGHORNE BOND DR,SPRINGFIELD,ILLINOIS,SANGAMON,"ONE LANGHORNE BOND DR, SPRINGFIELD, ILLINOIS","Springfield, Sangamon County, Illinois, United States",39.7990175,-89.6439575
89,UNITED STATES,1800 NE 150TH ST,NORTH MIAMI,FLORIDA,MIAMI-DADE,"1800 NE 150TH ST, NORTH MIAMI, FLORIDA","1800, Northeast 150th Street, North Miami, Miami-Dade County, Florida, 33181, United States",25.9136574,-80.1629625
90,UNITED STATES,1221 W LAKEVIEW AVE,PENSACOLA,FLORIDA,ESCAMBIA,"1221 W LAKEVIEW AVE, PENSACOLA, FLORIDA","1221, West Lakeview Avenue, Pensacola, Escambia County, Florida, 32501, United States",30.431692374126854,-87.23309831308629
91,UNITED STATES,98-1247 KAAHUMANU STREET ST 308,AIEA,HAWAII,HONOLULU,"98-1247 KAAHUMANU STREET ST 308, AIEA, HAWAII","Mary Savio Medical Plaza, 98-1247, Kaahumanu Street, Waimalu, Aiea, Honolulu County, Hawaii, 96701, United States",21.38841665,-157.95322400286
92,UNITED STATES,165 N ARLINGTON HEIGHTS RD STE 150,BUFFALO GROVE,ILLINOIS,LAKE,"165 N ARLINGTON HEIGHTS RD STE 150, BUFFALO GROVE, ILLINOIS","Buffalo Grove, Wheeling, Wheeling Township, Cook County, Illinois, 60089, United States",42.1514146,-87.959794
93,UNITED STATES,1025 LAUREL OAK RD,VOORHEES,NEW JERSEY,CAMDEN,"1025 LAUREL OAK RD, VOORHEES, NEW JERSEY","1025, Laurel Oak Road, Echelon, Voorhees Township, Camden County, New Jersey, 08043, United States",39.8454882,-74.9741654
94,UNITED STATES,505 WARD AVE STE 202,HONOLULU,HAWAII,HONOLULU,"505 WARD AVE STE 202, HONOLULU, HAWAII","Honolulu, Honolulu County, Hawaii, 96813, United States",21.304547,-157.855676
95,UNITED STATES,3515 BLUFF VIEW DR,SAINT CHARLES,MISSOURI,ST. CHARLES,"3515 BLUFF VIEW DR, SAINT CHARLES, MISSOURI","3515, Bluff View Drive, Harvester, Saint Charles County, Missouri, 63303, United States",38.717302,-90.5679014
96,UNITED STATES,1-3259 KAUMUALII HWY,ELEELE,HAWAII,KAUAI,"1-3259 KAUMUALII HWY, ELEELE, HAWAII","Eleele, ʻEleʻele, Port Allen, Kauaʻi County, Hawaii, 96705, United States",21.90501145,-159.58276139709088
97,UNITED STATES,4050 S FERDON BLVD,CRESTVIEW,FLORIDA,OKALOOSA,"4050 S FERDON BLVD, CRESTVIEW, FLORIDA","South Ferdon Boulevard, Crestview, Okaloosa County, Florida, 32536, United States",30.7580812,-86.5680008
98,UNITED STATES,3620 WYOMING BLVD NE,ALBUQUERQUE,NEW MEXICO,BERNALILLO,"3620 WYOMING BLVD NE, ALBUQUERQUE, NEW MEXICO","3620, Wyoming Boulevard Northeast, Albuquerque, Bernalillo County, New Mexico, 87111, United States",35.123964163265306,-106.55091053061224
99,UNITED STATES,519 PARROTT ST,SAN JOSE,CALIFORNIA,SANTA CLARA,"519 PARROTT ST, SAN JOSE, CALIFORNIA","519, Parrott Street, San Jose, Santa Clara County, California, 95112, United States",37.3080489,-121.8517706
100,UNITED STATES,555 NORTHAMPTON ST,HOLYOKE,MASSACHUSETTS,HAMPDEN,"555 NORTHAMPTON ST, HOLYOKE, MASSACHUSETTS","Summit View Pavilion, 555, Northampton Street, Smiths Ferry, Holyoke, Hampden County, Massachusetts, 01040, United States",42.2606447,-72.61094798903031
101,UNITED STATES,50 NORTH MEDICAL DR,SALT LAKE CITY,UTAH,SALT LAKE,"50 NORTH MEDICAL DR, SALT LAKE CITY, UTAH","50, North Medical Drive, Salt Lake City, Salt Lake County, Utah, 84113, United States",40.77303195744681,-111.83727257446809
102,UNITED STATES,991 DISCOVERY DR,HUNTSVILLE,ALABAMA,MADISON,"991 DISCOVERY DR, HUNTSVILLE, ALABAMA","Discovery Drive, Huntsville, Madison County, Alabama, 35814, United States",34.736004,-86.6782319
103,UNITED STATES,2307 BUSINESS CENTER DR,AUSTIN,TEXAS,TRAVIS,"2307 BUSINESS CENTER DR, AUSTIN, TEXAS","2307, Business Center Drive, Santa Monica Park, Austin, Travis County, Texas, 78741, United States",30.213029,-97.7409709902476
104,UNITED STATES,15985 NW SCHENDEL AVE STE 200,BEAVERTON,OREGON,WASHINGTON,"15985 NW SCHENDEL AVE STE 200, BEAVERTON, OREGON","Beaverton, Washington County, Oregon, United States",45.4871723,-122.80378
105,UNITED STATES,13459 US HIGHWAY 160,DEL NORTE,COLORADO,RIO GRANDE,"13459 US HIGHWAY 160, DEL NORTE, COLORADO","Del Norte, Rio Grande County, Colorado, United States",37.6788919,-106.353368
106,UNITED STATES,25784 COTTONWOOD AVE,SIOUX FALLS,SOUTH DAKOTA,MINNEHAHA,"25784 COTTONWOOD AVE, SIOUX FALLS, SOUTH DAKOTA","Sioux Falls, Sioux Falls Township, Minnehaha County, South Dakota, United States",43.5488256,-96.7307737
107,UNITED STATES,22911 86TH AVE S,KENT,WASHINGTON,KING,"22911 86TH AVE S, KENT, WASHINGTON","22911, 86th Avenue South, Kent, King County, Washington, 98031, United States",47.39662815,-122.22590920405759
108,UNITED STATES,3800 DURAZNO AVE,EL PASO,TEXAS,EL PASO,"3800 DURAZNO AVE, EL PASO, TEXAS","3800, Durazno Avenue, El Paso, El Paso County, Texas, 79905, United States",31.776368232323232,-106.44791682828283
109,UNITED STATES,2707 W MANSFIELD AVE,ENGLEWOOD,COLORADO,ARAPAHOE,"2707 W MANSFIELD AVE, ENGLEWOOD, COLORADO","West Mansfield Avenue, Englewood, Arapahoe County, Colorado, 80110, United States",39.6457925,-104.9941758
110,UNITED STATES,9 DEERPARK DR STE J5,MONMOUTH JUNCTION,NEW JERSEY,MIDDLESEX,"9 DEERPARK DR STE J5, MONMOUTH JUNCTION, NEW JERSEY","Monmouth Junction, South Brunswick, Middlesex County, New Jersey, United States",40.384022200000004,-74.53308403231352
111,UNITED STATES,4130 FABER PL DR STE 204,NORTH CHARLESTON,SOUTH CAROLINA,CHARLESTON,"4130 FABER PL DR STE 204, NORTH CHARLESTON, SOUTH CAROLINA","North Charleston, Charleston County, South Carolina, United States",32.8546197,-79.9748103
112,UNITED STATES,931 W OCEAN VIEW AVE,NORFOLK,VIRGINIA,NORFOLK (CITY),"931 W OCEAN VIEW AVE, NORFOLK, VIRGINIA","931, West Ocean View Avenue, Willoughby Beach, Norfolk, Virginia, 23503, United States",36.9662720726192,-76.27608224934215
113,UNITED STATES,1215 E GLENWOOD PL,SANTA ANA,CALIFORNIA,ORANGE,"1215 E GLENWOOD PL, SANTA ANA, CALIFORNIA","1215, East Glenwood Place, Cedar Evergreen, Santa Ana, Orange County, CAL Fire Southern Region, California, 92707, United States",33.722087974114736,-117.85618409995382
114,UNITED STATES,101 S CEDAR ST,ABILENE,KANSAS,DICKINSON,"101 S CEDAR ST, ABILENE, KANSAS","101, South Cedar Street, Abilene, Dickinson County, Kansas, 67410, United States",38.915123,-97.21662
115,UNITED STATES,565 JOHNSON AVE,BOHEMIA,NEW YORK,SUFFOLK,"565 JOHNSON AVE, BOHEMIA, NEW YORK","565, Johnson Avenue, Bohemia, Town of Islip, Suffolk County, New York, 11716, United States",40.7778318,-73.09379348859434
116,UNITED STATES,400 NORTHEAST DR STE J,COLUMBIA,SOUTH CAROLINA,RICHLAND,"400 NORTHEAST DR STE J, COLUMBIA, SOUTH CAROLINA","South Carolina, Elm Walk, Washington, District of Columbia, 20227, United States",38.889744050000004,-77.04086075512475
117,UNITED STATES,4132 B PL NW,AUBURN,WASHINGTON,KING,"4132 B PL NW, AUBURN, WASHINGTON","4132, B Place Northwest, North Auburn, Auburn, King County, Washington, 98001, United States",47.3428012,-122.22878996326503
118,UNITED STATES,1001 E FAYETTE ST,BALTIMORE,MARYLAND,BALTIMORE (CITY),"1001 E FAYETTE ST, BALTIMORE, MARYLAND","Baltimore City Health Department, 1001, East Fayette Street, Jonestown, Baltimore, Maryland, 21202, United States",39.2912423,-76.6033045
119,UNITED STATES,1032 S SAUNDERS ST,RALEIGH,NORTH CAROLINA,WAKE,"1032 S SAUNDERS ST, RALEIGH, NORTH CAROLINA","1032, South Saunders Street, Caraleigh, Raleigh, Wake County, North Carolina, 27603, United States",35.768422697069646,-78.64876732485588
120,UNITED STATES,181-189 E MERRICK RD,VALLEY STREAM,NEW YORK,NASSAU,"181-189 E MERRICK RD, VALLEY STREAM, NEW YORK","East Merrick Road, Village of Valley Stream, Town of Hempstead, Nassau County, New York, 11580, United States",40.6633375,-73.6928273
121,UNITED STATES,3009 INTERNATIONAL ST,FAIRBANKS,ALASKA,FAIRBANKS NORTH STAR,"3009 INTERNATIONAL ST, FAIRBANKS, ALASKA","3009, International Street, Fairbanks, Fairbanks North Star, Alaska, 99701, United States",64.81824202362205,-147.7508800472441
122,UNITED STATES,6940 O ST STE 100,LINCOLN,NEBRASKA,LANCASTER,"6940 O ST STE 100, LINCOLN, NEBRASKA","Lincoln, Lancaster County, Nebraska, United States",40.8088861,-96.7077751
123,UNITED STATES,1 ALBY ST,ALTON,ILLINOIS,MADISON,"1 ALBY ST, ALTON, ILLINOIS","1, Alby Street, Alton, Madison County, Illinois, 62002, United States",38.889383,-90.184197
124,UNITED STATES,1998 BUCKTAIL LANE,SUGAR GROVE,ILLINOIS,KANE,"1998 BUCKTAIL LANE, SUGAR GROVE, ILLINOIS","1998, Bucktail Lane, Sugar Grove, Sugar Grove Township, Kane County, Illinois, 60554, United States",41.761308,-88.488928
125,UNITED STATES,3215 N UNIVERSITY ST,PEORIA,ILLINOIS,PEORIA,"3215 N UNIVERSITY ST, PEORIA, ILLINOIS","3215, North University Street, Sunset Hills, Peoria, Peoria County, Illinois, 61604, United States",40.72742623955289,-89.61286217206347
126,UNITED STATES,265 PEACHTREE ST NE,ATLANTA,GEORGIA,FULTON,"265 PEACHTREE ST NE, ATLANTA, GEORGIA","Hyatt Regency Atlanta, 265, Peachtree Street Northeast, Hotel District, Atlanta, Fulton County, Georgia, 30303, United States",33.7616305,-84.38663621127573
127,UNITED STATES,8219 LEESBURG PIKE STE 300,VIENNA,VIRGINIA,FAIRFAX,"8219 LEESBURG PIKE STE 300, VIENNA, VIRGINIA","Vienna, Fairfax County, Virginia, 22180, United States",38.9013729,-77.2651762
128,UNITED STATES,15721 WC MAIN ST,MIDLOTHIAN,VIRGINIA,CHESTERFIELD,"15721 WC MAIN ST, MIDLOTHIAN, VIRGINIA","Midlothian, Chesterfield County, Virginia, 23113, United States",37.5062673,-77.649268
129,UNITED STATES,19257 COLLIER RIDGE,GUILFORD,INDIANA,DEARBORN,"19257 COLLIER RIDGE, GUILFORD, INDIANA","Guilford, York Township, Dearborn County, Indiana, United States",39.1681112,-84.9118976
130,UNITED STATES,12028 S NORWOOD AVE STE 300,TULSA,OKLAHOMA,TULSA,"12028 S NORWOOD AVE STE 300, TULSA, OKLAHOMA","Tulsa, Tulsa County, Oklahoma, United States",36.1563122,-95.9927436
131,UNITED STATES,97000 OVERSEAS HWY,KEY LARGO,FLORIDA,MONROE,"97000 OVERSEAS HWY, KEY LARGO, FLORIDA","Baker's Cay Resort - Key Largo Grande, Curio Collection by Hilton, 97000, Overseas Highway, Rock Harbor, Key Largo, Monroe County, Florida, 33037, United States",25.06662325,-80.4722580787172
132,UNITED STATES,802 FIFTH ST,PORTSMOUTH,VIRGINIA,PORTSMOUTH (CITY),"802 FIFTH ST, PORTSMOUTH, VIRGINIA","Portsmouth City, Virginia, United States",36.8444196,-76.3532998
133,UNITED STATES,6800 MCLEAN WAY,GLEN BURNIE,MARYLAND,ANNE ARUNDEL,"6800 MCLEAN WAY, GLEN BURNIE, MARYLAND","Glen Burnie, Anne Arundel County, Maryland, United States",39.1595439,-76.61515136556432
134,UNITED STATES,4800 PATRICK HENRY DR # 120,SANTA CLARA,CALIFORNIA,SANTA CLARA,"4800 PATRICK HENRY DR # 120, SANTA CLARA, CALIFORNIA","Santa Clara County, California, United States",37.2333253,-121.6846349
135,UNITED STATES,610 THE PARKWAY,ITHACA,NEW YORK,TOMPKINS,"610 THE PARKWAY, ITHACA, NEW YORK","610, The Parkway, Village of Cayuga Heights, Town of Ithaca, Ulysses, Tompkins County, New York, 14850, United States",42.4709725,-76.4891043093296
136,UNITED STATES,438 WHITNEY RD EXTENSION UNIT 1133,STORRS,CONNECTICUT,TOLLAND,"438 WHITNEY RD EXTENSION UNIT 1133, STORRS, CONNECTICUT","Storrs, Mansfield, Tolland County, Connecticut, United States",41.80564555,-72.25413294148728
137,UNITED STATES,1550 PILGRIM ST SUITE A,MOSES LAKE,WASHINGTON,GRANT,"1550 PILGRIM ST SUITE A, MOSES LAKE, WASHINGTON","Moses Lake, Grant County, Washington, 98837, United States",47.1301417,-119.278077
138,UNITED STATES,3333 S DIAMOND CANYON RD,DIAMOND BAR,CALIFORNIA,LOS ANGELES,"3333 S DIAMOND CANYON RD, DIAMOND BAR, CALIFORNIA","3333, South Diamond Canyon Road, Diamond Bar, Los Angeles County, California, 91765, United States",33.967018900280934,-117.85240627508917
139,UNITED STATES,7030 DORSEY RD STE 102,HANOVER,MARYLAND,ANNE ARUNDEL,"7030 DORSEY RD STE 102, HANOVER, MARYLAND","Hanover, Howard County, Maryland, 21076, United States",39.1928853,-76.7241371
140,UNITED STATES,12012 SUNSET HILLS RD STE 920B,RESTON,VIRGINIA,FAIRFAX,"12012 SUNSET HILLS RD STE 920B, RESTON, VIRGINIA","Reston, Fairfax County, Virginia, United States",38.955696,-77.34188283719988
141,UNITED STATES,18027 DUMFRIES SHOPPING PLZ STE 1,DUMFRIES,VIRGINIA,PRINCE WILLIAM,"18027 DUMFRIES SHOPPING PLZ STE 1, DUMFRIES, VIRGINIA","Dumfries, Prince William County, Virginia, United States",38.5676202,-77.3280382
142,UNITED STATES,4440 EVANGEL CIRCLE NW,HUNTSVILLE,ALABAMA,MADISON,"4440 EVANGEL CIRCLE NW, HUNTSVILLE, ALABAMA","4440, Evangel Circle Northwest, Summit Place, Huntsville, Madison County, Alabama, 35816, United States",34.737083530612246,-86.64010179591837
143,UNITED STATES,18124 WEDGE PKWY STE 431,RENO,NEVADA,WASHOE,"18124 WEDGE PKWY STE 431, RENO, NEVADA","Reno, Washoe County, Nevada, United States",39.5261206,-119.8126581
144,UNITED STATES,6250 TUTTLE PL STE 5,ANCHORAGE,ALASKA,ANCHORAGE,"6250 TUTTLE PL STE 5, ANCHORAGE, ALASKA","Anchorage, Alaska, 99501, United States",61.2163129,-149.894852
145,UNITED STATES,955 OLD WILIMINGTON RD,FAYETTEVILLE,NORTH CAROLINA,CUMBERLAND,"955 OLD WILIMINGTON RD, FAYETTEVILLE, NORTH CAROLINA","Fayetteville, Cumberland County, North Carolina, United States",35.0525759,-78.878292
146,UNITED STATES,43099 CYPRESS BEND DRIVE,GONZALES,LOUISIANA,ASCENSION,"43099 CYPRESS BEND DRIVE, GONZALES, LOUISIANA","Gonzales, Ascension Parish, Louisiana, 70737, United States",30.2385294,-90.9200987
147,UNITED STATES,285 WATER ST,SANTA CRUZ,CALIFORNIA,SANTA CRUZ,"285 WATER ST, SANTA CRUZ, CALIFORNIA","285, Water Street, Water Street Commercial Corridor, Downtown, Santa Cruz, Santa Cruz County, CAL Fire Northern Region, California, 95060, United States",36.979142640372366,-122.02305660366123
148,UNITED STATES,1025 N LEVEE RD,PUYALLUP,WASHINGTON,PIERCE,"1025 N LEVEE RD, PUYALLUP, WASHINGTON","1025, North Levee Road, Puyallup, Pierce County, Washington, 98371, United States",47.203951379788606,-122.3058886940552
149,UNITED STATES,3025 COPPERLANE CT,RAPID CITY,SOUTH DAKOTA,PENNINGTON,"3025 COPPERLANE CT, RAPID CITY, SOUTH DAKOTA","Rapid City, Pennington County, South Dakota, United States",44.0869329,-103.2274481
150,UNITED STATES,URB PEREZ MORRIS 20 ARECIBO,SAN JUAN,PUERTO RICO,SAN JUAN,"URB PEREZ MORRIS 20 ARECIBO, SAN JUAN, PUERTO RICO","San Juan, Puerto Rico, United States",18.465299,-66.116666
151,UNITED STATES,3501 EDISON WAY,MENLO PARK,CALIFORNIA,SAN MATEO,"3501 EDISON WAY, MENLO PARK, CALIFORNIA","Menlo Park, San Mateo County, CAL Fire Northern Region, California, 94025, United States",37.4519671,-122.1779927
152,UNITED STATES,"14291 PARK MEADOW DR, STE 100",CHANTILLY,VIRGINIA,FAIRFAX,"14291 PARK MEADOW DR, STE 100, CHANTILLY, VIRGINIA","Chantilly, Fairfax County, Virginia, United States",38.8788355,-77.40221718011088
153,UNITED STATES,900 42ND ST S,FARGO,NORTH DAKOTA,CASS,"900 42ND ST S, FARGO, NORTH DAKOTA","Fargo, Cass County, North Dakota, United States",46.877229,-96.789821
154,UNITED STATES,3501 TRICENTER BLVD STE C,DURHAM,NORTH CAROLINA,DURHAM,"3501 TRICENTER BLVD STE C, DURHAM, NORTH CAROLINA","Durham, Durham County, North Carolina, United States",35.996653,-78.9018053
155,UNITED STATES,161 FORT EVANS RD NE STE 325,LEESBURG,VIRGINIA,LOUDOUN,"161 FORT EVANS RD NE STE 325, LEESBURG, VIRGINIA","Leesburg, Loudoun County, Virginia, United States",39.1154496,-77.5645446
156,UNITED STATES,505 N INTERSTATE 35 E,DESOTO,TEXAS,DALLAS,"505 N INTERSTATE 35 E, DESOTO, TEXAS","DeSoto, Dallas County, Texas, 75115, United States",32.5897831,-96.8570183
157,UNITED STATES,5600 TECUMSEH AVE,MONONA,WISCONSIN,DANE,"5600 TECUMSEH AVE, MONONA, WISCONSIN","5600, Tecumseh Avenue, Belle Isle, Monona, Dane County, Wisconsin, 53716, United States",43.058503990914026,-89.3463501621568
158,UNITED STATES,860 GREENBRIER CIR STE 405,CHESAPEAKE,VIRGINIA,CHESAPEAKE (CITY),"860 GREENBRIER CIR STE 405, CHESAPEAKE, VIRGINIA","Chesapeake, Virginia, United States",36.7183708,-76.2466798
159,UNITED STATES,1355 S SANDY LN,CHANDLER,OKLAHOMA,LINCOLN,"1355 S SANDY LN, CHANDLER, OKLAHOMA","1355, South Sandy Lane, Chandler, Lincoln County, Oklahoma, 74834, United States",35.69723964516129,-96.85846667741936
160,UNITED STATES,7021 WYNNTREE DR,MANDEVILLE,LOUISIANA,ST. TAMMANY,"7021 WYNNTREE DR, MANDEVILLE, LOUISIANA","Mandeville, St. Tammany Parish, Louisiana, United States",30.3582305,-90.0657477
161,UNITED STATES,5700 STONERIDGE DR,PLEASANTON,CALIFORNIA,ALAMEDA,"5700 STONERIDGE DR, PLEASANTON, CALIFORNIA","5700, Stoneridge Drive, Hacienda, Pleasanton, Alameda County, CAL Fire Northern Region, California, 94588, United States",37.69107995,-121.89187356759867
162,UNITED STATES,225 SCHILLING CIR STE 400,HUNT VALLEY,Maryland,BALTIMORE,"225 SCHILLING CIR STE 400, HUNT VALLEY, Maryland","Hunt Valley, Cockeysville, Baltimore County, Maryland, 21031, United States",39.4922608,-76.6589528
163,UNITED STATES,1934 OLD GALLOWS RD STE 350,TYSONS CORNER,VIRGINIA,FAIRFAX,"1934 OLD GALLOWS RD STE 350, TYSONS CORNER, VIRGINIA","Tysons, Fairfax County, Virginia, United States",38.916509000000005,-77.2257977704366
164,UNITED STATES,300 S GRAND AVE STE 1100,LOS ANGELES,California,LOS ANGELES,"300 S GRAND AVE STE 1100, LOS ANGELES, California","Los Angeles, Los Angeles County, CAL Fire Southern Region, California, United States",34.0536909,-118.242766
165,UNITED STATES,1025 NORTHPARK DR,RIDGELAND,MISSISSIPPI,MADISON,"1025 NORTHPARK DR, RIDGELAND, MISSISSIPPI","Northpark Drive, Northpark, Ridgeland, Madison County, Mississippi, 39157, United States",32.4039693,-90.1264741
166,UNITED STATES,932 W PINE ST,AVON PARK,FLORIDA,HIGHLANDS,"932 W PINE ST, AVON PARK, FLORIDA","932, West Pine Street, Avon Park, Highlands County, Florida, 33825, United States",27.594773020408166,-81.5110221632653
167,UNITED STATES,912 S MAIN ST STE 106,SIKESTON,MISSOURI,NEW MADRID,"912 S MAIN ST STE 106, SIKESTON, MISSOURI","Sikeston, Scott County, Missouri, 63801, United States",36.876719,-89.5878579
168,UNITED STATES,2711 E FRONTAGE RD,ABRAMS,WISCONSIN,OCONTO,"2711 E FRONTAGE RD, ABRAMS, WISCONSIN","2711, East Frontage Road, Sobieski Corners, Town of Abrams, Oconto County, Wisconsin, 54101, United States",44.77153640816327,-88.04715389795918
169,UNITED STATES,9090 TAYLOR RD,LEHIGH,IOWA,WEBSTER,"9090 TAYLOR RD, LEHIGH, IOWA","9090, Taylor Road, Lehigh, Webster County, Iowa, 50557, United States",42.35767342857143,-94.05887140816326
170,UNITED STATES,616 E PARK AVE,RICH HILL,MISSOURI,BATES,"616 E PARK AVE, RICH HILL, MISSOURI","Rich Hill, Bates County, Missouri, 64779, United States",38.0964191,-94.3610616
171,UNITED STATES,100 N CUYLER ST,PAMPA,TEXAS,GRAY,"100 N CUYLER ST, PAMPA, TEXAS","100, North Cuyler Street, Pampa, Gray County, Texas, 79065, United States",35.535973,-100.961436
172,UNITED STATES,150 2ND AVE SW,PERHAM,MINNESOTA,OTTER TAIL,"150 2ND AVE SW, PERHAM, MINNESOTA","150, 2nd Avenue Southwest, Perham, Otter Tail County, Minnesota, 56573, United States",46.59451755102041,-95.57454073469387
173,UNITED STATES,15223 S HENRICI RD,OREGON CITY,OREGON,CLACKAMAS,"15223 S HENRICI RD, OREGON CITY, OREGON","Oregon Trail Free Will Baptist Church, 14595, South Henrici Road, Oregon City, Clackamas County, Oregon, 97045, United States",45.311339849999996,-122.56707097008399
174,UNITED STATES,720 CHESTNUT ST,OSAGE,IOWA,MITCHELL,"720 CHESTNUT ST, OSAGE, IOWA","720, Chestnut Street, Osage, Mitchell County, Iowa, 50461, United States",43.28013078588489,-92.81080896894929
175,UNITED STATES,CARR 2 KM 123.3 EDIF PARADISE CERAMIC,AGUADILLA,PUERTO RICO,AGUADILLA,"CARR 2 KM 123.3 EDIF PARADISE CERAMIC, AGUADILLA, PUERTO RICO","Supermercados Selectos Aguadilla, PR 125 KM 19.0 SAN SEBASTIAN, PUERTO RICO, 125, Borinquen, Calle Villa Matías, Borinquen, Aguadilla, Puerto Rico, 00605, United States",18.4686803,-67.1544517
176,UNITED STATES,105 S CEDAR AVE,DEMOPOLIS,ALABAMA,MARENGO,"105 S CEDAR AVE, DEMOPOLIS, ALABAMA","Bryan W. Whitfield Memorial Hospital, 105, South Cedar Avenue, Baptist Hill, Demopolis, Marengo County, Alabama, 36732, United States",32.504875850000005,-87.83694560190409
177,UNITED STATES,3301 INDUSTRIAL AVE,ROCKLIN,CALIFORNIA,PLACER,"3301 INDUSTRIAL AVE, ROCKLIN, CALIFORNIA","Rocklin, Placer County, California, United States",38.7907339,-121.2357828
178,UNITED STATES,12851 MANCHESTER RD STE 1-W-406,SAINT LOUIS,MISSOURI,ST. LOUIS,"12851 MANCHESTER RD STE 1-W-406, SAINT LOUIS, MISSOURI","Saint Louis, Missouri, United States",38.6319657,-90.2428756
179,UNITED STATES,242 HARTNELL AVE STE C,REDDING,CALIFORNIA,SHASTA,"242 HARTNELL AVE STE C, REDDING, CALIFORNIA","Redding, Shasta County, California, United States",40.5863563,-122.391675
180,UNITED STATES,1001 17TH ST,DENVER,COLORADO,DENVER,"1001 17TH ST, DENVER, COLORADO","Protein Bar, 1001, 17th Street, Central Business District, Denver, Colorado, 80202, United States",39.7484429,-104.9936227
181,UNITED STATES,550 BROAD ST,NEWARK,NEW JERSEY,ESSEX,"550 BROAD ST, NEWARK, NEW JERSEY","550 Broad Building, 550, Broad Street, Newark, Essex County, New Jersey, 07114, United States",40.742566100000005,-74.16874374068436
182,UNITED STATES,1800 RIVER DRIVE NORTH,GREAT FALLS,MONTANA,CASCADE,"1800 RIVER DRIVE NORTH, GREAT FALLS, MONTANA","1800, River Drive North, Great Falls, Cascade County, Montana, 59401, United States",47.51894787995033,-111.27640907399872
183,UNITED STATES,12100 PARK THIRTY FIVE CIR,AUSTIN,Texas,TRAVIS,"12100 PARK THIRTY FIVE CIR, AUSTIN, Texas","12100, Park Thirty Five Circle, The Springs of Walnut Creek, Austin, Travis County, Texas, 78753, United States",30.394066,-97.675239
184,UNITED STATES,2837 E HWY 193,LAYTON,UTAH,DAVIS,"2837 E HWY 193, LAYTON, UTAH","East Highway 193, North Hills Estates, Layton, Davis County, Utah, 84040, United States",41.1016768,-111.9432599
185,UNITED STATES,3085 FLUVANNA AVENUE EXT,JAMESTOWN,NEW YORK,CHAUTAUQUA,"3085 FLUVANNA AVENUE EXT, JAMESTOWN, NEW YORK","Jamestown, Chautauqua County, New York, United States",42.0965167,-79.2380322
186,UNITED STATES,246 S 14TH ST,LINCOLN,NEBRASKA,LANCASTER,"246 S 14TH ST, LINCOLN, NEBRASKA","246, South 14th Street, Downtown, Original Lincoln, Lincoln, Lancaster County, Nebraska, 68508, United States",40.811969081632654,-96.70105881632652
187,UNITED STATES,809 S MARSHFIELD RM 520,CHICAGO,ILLINOIS,COOK,"809 S MARSHFIELD RM 520, CHICAGO, ILLINOIS","Chicago, Cook County, Illinois, United States",41.8755616,-87.6244212
188,UNITED STATES,1847 W MAIN RD,PORTSMOUTH,RHODE ISLAND,NEWPORT,"1847 W MAIN RD, PORTSMOUTH, RHODE ISLAND","West Main Road, Portsmouth, Newport County, Rhode Island, 02871, United States",41.5921131,-71.2662616
189,UNITED STATES,300 N ELM ST STE 101,DENTON,TEXAS,DENTON,"300 N ELM ST STE 101, DENTON, TEXAS","Denton County, Texas, United States",33.1838787,-97.1413417
190,UNITED STATES,111 E LAUREL STE 100,SAN ANTONIO,TEXAS,BEXAR,"111 E LAUREL STE 100, SAN ANTONIO, TEXAS","San Antonio, Bexar County, Texas, United States",29.4246002,-98.4951405
191,UNITED STATES,2700 BUSINESS CENTER BLVD,MELBOURNE,FLORIDA,BREVARD,"2700 BUSINESS CENTER BLVD, MELBOURNE, FLORIDA","Melbourne, Brevard County, Florida, United States",28.106471,-80.6371513
192,UNITED STATES,1425 CHAFFEE DR STE 4,TITUSVILLE,FLORIDA,BREVARD,"1425 CHAFFEE DR STE 4, TITUSVILLE, FLORIDA","Titusville, Brevard County, Florida, United States",28.6122187,-80.8075538
193,UNITED STATES,1896 K AVE STE 100,PLANO,TEXAS,COLLIN,"1896 K AVE STE 100, PLANO, TEXAS","Plano, Collin County, Texas, United States",33.0136764,-96.6925096
194,UNITED STATES,1236 N MONROE ST,TALLAHASSEE,FLORIDA,LEON,"1236 N MONROE ST, TALLAHASSEE, FLORIDA","Advanced Business Systems, 1236, North Monroe Street, Tallahassee, Leon County, Florida, 32303, United States",30.45590475,-84.28102275066084
195,UNITED STATES,1127 LEVERETT RD,WARNER ROBINS,GEORGIA,HOUSTON,"1127 LEVERETT RD, WARNER ROBINS, GEORGIA","1127, Leverett Road, Warner Robins, Houston County, Georgia, 31088, United States",32.60172207871629,-83.66428156826531
196,UNITED STATES,2711 CENTERVILLE RD STE 400,WILMINGTON,DELAWARE,NEW CASTLE,"2711 CENTERVILLE RD STE 400, WILMINGTON, DELAWARE","Wilmington, New Castle County, Delaware, United States",39.7459468,-75.546589
197,UNITED STATES,1 DUPONT CIR NW,WASHINGTON,DISTRICT OF COLUMBIA,DISTRICT OF COLUMBIA,"1 DUPONT CIR NW, WASHINGTON, DISTRICT OF COLUMBIA","The Admiral, 1, Dupont Circle Northwest, Dupont Circle, Washington, District of Columbia, 20036, United States",38.9090931,-77.0443585
198,UNITED STATES,9500 ARENA DR STE 105,LARGO,MARYLAND,PRINCE GEORGE'S,"9500 ARENA DR STE 105, LARGO, MARYLAND","Largo, Prince George's County, Maryland, United States",38.8824538,-76.82857456500106
199,UNITED STATES,6332 S CENTRAL AVE,CHICAGO,ILLINOIS,COOK,"6332 S CENTRAL AVE, CHICAGO, ILLINOIS","6332-6348, South Central Avenue, Clearing, Chicago, Lake Township, Cook County, Illinois, 60459, United States",41.7768916,-87.76203579859703
200,UNITED STATES,2628 ERICKSON RD,YAZOO CITY,MISSISSIPPI,YAZOO,"2628 ERICKSON RD, YAZOO CITY, MISSISSIPPI","Yazoo City, Yazoo County, Mississippi, 39194, United States",32.8550965,-90.4056469
201,UNITED STATES,70 WEIL WAY,WILMINGTON,OHIO,CLINTON,"70 WEIL WAY, WILMINGTON, OHIO","Wilmington, Clinton County, Ohio, 45177, United States",39.4453393,-83.8285375
202,UNITED STATES,5911 MISSION ST,OSCODA,MICHIGAN,IOSCO,"5911 MISSION ST, OSCODA, MICHIGAN","Oscoda County, Michigan, United States",44.6789109,-84.1467693
203,UNITED STATES,521 HILLSPUR RD,ANN ARBOR,MICHIGAN,WASHTENAW,"521 HILLSPUR RD, ANN ARBOR, MICHIGAN","521, Hillspur Road, Barton Hills, Ann Arbor Township, Washtenaw County, Michigan, 48105, United States",42.31895947294837,-83.75711452152424
204,UNITED STATES,199 LEE AVE SUITE 134,BROOKLYN,NEW YORK,KINGS,"199 LEE AVE SUITE 134, BROOKLYN, NEW YORK","Brooklyn, Kings County, City of New York, New York, United States",40.6526006,-73.9497211
205,UNITED STATES,1100 W EWING ST,SEATTLE,WASHINGTON,KING,"1100 W EWING ST, SEATTLE, WASHINGTON","1100, West Ewing Street, Seattle, King County, Washington, 98119, United States",47.6567842,-122.37037779268617
206,UNITED STATES,2707 PORTLAND ST #114,LOS ANGELES,CALIFORNIA,LOS ANGELES,"2707 PORTLAND ST #114, LOS ANGELES, CALIFORNIA","2707, Portland Street, University Park, Los Angeles, Los Angeles County, CAL Fire Southern Region, California, 90007, United States",34.030026534136546,-118.28275100803212
207,UNITED STATES,10 ESTES ST,IPSWICH,MASSACHUSETTS,ESSEX,"10 ESTES ST, IPSWICH, MASSACHUSETTS","EBSCO, 10, Estes Street, Ipswich, Essex County, Massachusetts, 01938, United States",42.677011,-70.8387934015065
208,UNITED STATES,1617 GILLESPIE ST,FAYETTEVILLE,NORTH CAROLINA,CUMBERLAND,"1617 GILLESPIE ST, FAYETTEVILLE, NORTH CAROLINA","Gillespie Street, Fayetteville, Cumberland County, North Carolina, 28248, United States",35.0201159,-78.8956381
209,UNITED STATES,10 TECHNOLOGY DR,LOWELL,MASSACHUSETTS,MIDDLESEX,"10 TECHNOLOGY DR, LOWELL, MASSACHUSETTS","10, Technology Drive, Princeton Village, Lowell, Middlesex County, Massachusetts, 01284, United States",42.627358,-71.35965693322461
210,UNITED STATES,53 AYER RD,LITTLETON,MASSACHUSETTS,MIDDLESEX,"53 AYER RD, LITTLETON, MASSACHUSETTS","53, Ayer Road, Littleton, Middlesex County, Massachusetts, 01640, United States",42.547316949999995,-71.51607704435598
211,UNITED STATES,11993 RAVENNA RD STE 12,CHARDON,OHIO,GEAUGA,"11993 RAVENNA RD STE 12, CHARDON, OHIO","Chardon, Geauga County, Ohio, 44024, United States",41.5824944,-81.2034066
212,UNITED STATES,51 MORGAN DR,NORWOOD,MASSACHUSETTS,NORFOLK,"51 MORGAN DR, NORWOOD, MASSACHUSETTS","51, Morgan Drive, Norwood, Norfolk County, Massachusetts, 02062, United States",42.1714056,-71.1906924041943
213,UNITED STATES,801 BUTLER ST UNIT 3,CHESAPEAKE,VIRGINIA,CHESAPEAKE (CITY),"801 BUTLER ST UNIT 3, CHESAPEAKE, VIRGINIA","Chesapeake, Virginia, United States",36.7183708,-76.2466798
214,UNITED STATES,381 WEST CENTER STREET,MARION,OHIO,MARION,"381 WEST CENTER STREET, MARION, OHIO","381, West Center Street, Downtown, Marion, Marion County, Ohio, 43302, United States",40.588316500000005,-83.13605666666668
215,UNITED STATES,2195 W 5400 S STE 202,SALT LAKE CITY,UTAH,SALT LAKE,"2195 W 5400 S STE 202, SALT LAKE CITY, UTAH","Salt Lake City, Salt Lake County, Utah, United States",40.7596198,-111.8867975
216,UNITED STATES,1577 SPRING HILL RD STE 405,VIENNA,VIRGINIA,FAIRFAX,"1577 SPRING HILL RD STE 405, VIENNA, VIRGINIA","Vienna, Fairfax County, Virginia, 22180, United States",38.9013729,-77.2651762
217,UNITED STATES,1 COOL BLOW STREET BUILDING 200,CHARLESTON,SOUTH CAROLINA,CHARLESTON,"1 COOL BLOW STREET BUILDING 200, CHARLESTON, SOUTH CAROLINA","Charleston, Charleston County, South Carolina, United States",32.7876012,-79.9402728
218,UNITED STATES,9000 RESEARCH DR,IRVINE,CALIFORNIA,ORANGE,"9000 RESEARCH DR, IRVINE, CALIFORNIA","9000, Research Drive, Irvine Spectrum, Irvine, Orange County, CAL Fire Southern Region, California, 92618, United States",33.64235055,-117.73840178440219
219,UNITED STATES,7208 W SAND LAKE RD STE 305,ORLANDO,FLORIDA,ORANGE,"7208 W SAND LAKE RD STE 305, ORLANDO, FLORIDA","Orlando, Orange County, Florida, United States",28.5421109,-81.3790304
220,UNITED STATES,1 ALEWIFE CTR STE 200,CAMBRIDGE,MASSACHUSETTS,MIDDLESEX,"1 ALEWIFE CTR STE 200, CAMBRIDGE, MASSACHUSETTS","Cambridge, Middlesex County, Massachusetts, United States",42.3750997,-71.1056157
221,UNITED STATES,12010 SUNSET HILLS RD STE 500,RESTON,VIRGINIA,FAIRFAX,"12010 SUNSET HILLS RD STE 500, RESTON, VIRGINIA","Reston, Fairfax County, Virginia, United States",38.955696,-77.34188283719988
222,UNITED STATES,600 N PLANKINTON AVE,MILWAUKEE,WISCONSIN,MILWAUKEE,"600 N PLANKINTON AVE, MILWAUKEE, WISCONSIN","American Society For Quality, 600, North Plankinton Avenue, Westown, Milwaukee, Milwaukee County, Wisconsin, 53203, United States",43.0375787,-87.9108763
223,UNITED STATES,4114 LEGATO RD STE 440,FAIRFAX,VIRGINIA,FAIRFAX,"4114 LEGATO RD STE 440, FAIRFAX, VIRGINIA","Fairfax County, Virginia, United States",38.8156356,-77.2836849
224,UNITED STATES,2850 S RED HILL AVE STE 125,SANTA ANA,CALIFORNIA,ORANGE,"2850 S RED HILL AVE STE 125, SANTA ANA, CALIFORNIA","Santa Ana, Orange County, CAL Fire Southern Region, California, United States",33.7494951,-117.8732213
225,UNITED STATES,1352 ROSS LN,ROCHESTER,MICHIGAN,OAKLAND,"1352 ROSS LN, ROCHESTER, MICHIGAN","1352, Ross Lane, Stony Creek Ridge North, Stony Creek, Rochester, Oakland County, Michigan, 48306, United States",42.697718801865854,-83.10702375077979
226,UNITED STATES,920 ROUTE 202,RARITAN,NEW JERSEY,SOMERSET,"920 ROUTE 202, RARITAN, NEW JERSEY","Raritan, Somerset County, New Jersey, 08869, United States",40.567181,-74.634683
227,UNITED STATES,11932 COUNTY ROAD 24.3,CORTEZ,COLORADO,MONTEZUMA,"11932 COUNTY ROAD 24.3, CORTEZ, COLORADO","Cortez, Montezuma County, Colorado, 81321, United States",37.3494528,-108.584073
228,UNITED STATES,2684 SW WINDSHIP WAY,STUART,FLORIDA,MARTIN,"2684 SW WINDSHIP WAY, STUART, FLORIDA","Stuart, Martin County, Florida, United States",27.197983,-80.2519175
229,UNITED STATES,20810 PLUMMER ST,CHATSWORTH,CALIFORNIA,LOS ANGELES,"20810 PLUMMER ST, CHATSWORTH, CALIFORNIA","Chatsworth, Los Angeles, Los Angeles County, CAL Fire Southern Region, California, 91311, United States",34.2595715,-118.6023247
230,UNITED STATES,110 BRYNN MARR RD,JACKSONVILLE,NORTH CAROLINA,ONSLOW,"110 BRYNN MARR RD, JACKSONVILLE, NORTH CAROLINA","110, Brynn Marr Road, Brynn Marr, Jacksonville, Onslow County, North Carolina, 28546, United States",34.748923345047224,-77.38696457507537
231,UNITED STATES,W231 N2811 ROUNDY CIR E STE 200,PEWAUKEE,WISCONSIN,WAUKESHA,"W231 N2811 ROUNDY CIR E STE 200, PEWAUKEE, WISCONSIN","Village of Pewaukee, Waukesha County, Wisconsin, 53072, United States",43.0805651,-88.2612045
232,UNITED STATES,501 MOSSIDE BLVD,NORTH VERSAILLES,PENNSYLVANIA,ALLEGHENY,"501 MOSSIDE BLVD, NORTH VERSAILLES, PENNSYLVANIA","501, Mosside Boulevard, North Versailles, Allegheny County, Pennsylvania, 15137, United States",40.377995,-79.77704
233,UNITED STATES,22615 N 73RD AVE,GLENDALE,ARIZONA,MARICOPA,"22615 N 73RD AVE, GLENDALE, ARIZONA","22615, North 73rd Avenue, Glendale, Maricopa County, Arizona, 85310, United States",33.68819655,-112.21526267150257
234,UNITED STATES,16113 W QUAIL CREEK LN,SURPRISE,ARIZONA,MARICOPA,"16113 W QUAIL CREEK LN, SURPRISE, ARIZONA","16113, West Quail Creek Lane, Sun City Grand, Surprise, Maricopa County, Arizona, 85374, United States",33.66913024013682,-112.40789949781353
235,UNITED STATES,400 AVIATION DR,MOUNT VERNON,ILLINOIS,JEFFERSON,"400 AVIATION DR, MOUNT VERNON, ILLINOIS","Aviation Drive, Mount Vernon, Jefferson County, Illinois, United States",38.3204157,-88.8524374
236,UNITED STATES,8401 OLD STAGE RD UNIT 101,CENTRAL POINT,OREGON,JACKSON,"8401 OLD STAGE RD UNIT 101, CENTRAL POINT, OREGON","Central Point, Jackson County, Oregon, 97502, United States",42.376782,-122.912721
237,UNITED STATES,8445 FRIARBRIDGE DR,SUWANEE,GEORGIA,FORSYTH,"8445 FRIARBRIDGE DR, SUWANEE, GEORGIA","Suwanee, Gwinnett County, Georgia, United States",34.0514898,-84.0712997
238,UNITED STATES,125 HIGH ST STE 900,BOSTON,MASSACHUSETTS,SUFFOLK,"125 HIGH ST STE 900, BOSTON, MASSACHUSETTS","Boston, Suffolk County, Massachusetts, United States",42.3554334,-71.060511
239,UNITED STATES,22936 EVERSOLE TER,BRAMBLETON,VIRGINIA,LOUDOUN,"22936 EVERSOLE TER, BRAMBLETON, VIRGINIA","22936, Eversole Terrace, Summerfield, Brambleton, Loudoun County, Virginia, 20148, United States",38.98215222580645,-77.53421190322581
240,UNITED STATES,5 MILES S ON CR 442,MONTEZUMA CREEK,UTAH,SAN JUAN,"5 MILES S ON CR 442, MONTEZUMA CREEK, UTAH","Montezuma Creek, Shiprock Agency / Naatʼáanii Nééz Bił Hahoodzo biyiʼdi, San Juan County, Utah, 84534, United States",37.2598195,-109.30379287522769
241,UNITED STATES,18425 KANIS RD,LITTLE ROCK,ARKANSAS,PULASKI,"18425 KANIS RD, LITTLE ROCK, ARKANSAS","Kanis Road, Little Rock, Pulaski County, Arkansas, 72223, United States",34.755346,-92.445066
242,UNITED STATES,5881 LEESBURG PIKE SUITE 304,FALLS CHURCH,VIRGINIA,FAIRFAX,"5881 LEESBURG PIKE SUITE 304, FALLS CHURCH, VIRGINIA","Falls Church, Virginia, 22046, United States",38.882334,-77.1710914
243,UNITED STATES,2 RADCLIFF RD,TEWKSBURY,MASSACHUSETTS,MIDDLESEX,"2 RADCLIFF RD, TEWKSBURY, MASSACHUSETTS","2, Radcliff Road, Tewksbury, Middlesex County, Massachusetts, 01876, United States",42.63967485,-71.23459747642141
244,UNITED STATES,811 E WASHINGTON AVE STE 400,MADISON,WISCONSIN,DANE,"811 E WASHINGTON AVE STE 400, MADISON, WISCONSIN","Madison, Dane County, Wisconsin, United States",43.074761,-89.3837613
245,UNITED STATES,3932 NS 374,ALLEN,OKLAHOMA,PONTOTOC,"3932 NS 374, ALLEN, OKLAHOMA","Allen, Pontotoc County, Oklahoma, 74825, United States",34.8789766,-96.4125075
246,UNITED STATES,3 CANAL STREET SAN JOSE VILLAGE,TINIAN,NORTHERN MARIANA ISLANDS,TINIAN,"3 CANAL STREET SAN JOSE VILLAGE, TINIAN, NORTHERN MARIANA ISLANDS","Tinian Island, San Jose (Tinian), Tinian Municipality, Northern Mariana Islands, 96952, United States",15.01190145,145.62916590582893
247,UNITED STATES,14142 DENVER W PKY BLDG 51 STE 335,LAKEWOOD,COLORADO,JEFFERSON,"14142 DENVER W PKY BLDG 51 STE 335, LAKEWOOD, COLORADO","Lakewood, Jefferson County, Colorado, United States",39.7085736,-105.0846694
248,UNITED STATES,6800 W 115TH ST STE 2200,OVERLAND PARK,Kansas,FAIRFAX,"6800 W 115TH ST STE 2200, OVERLAND PARK, Kansas","Overland Park, Johnson County, Kansas, United States",38.9742502,-94.6851702
249,UNITED STATES,2000 REDDING RANCHERIA RD,REDDING,CALIFORNIA,SHASTA,"2000 REDDING RANCHERIA RD, REDDING, CALIFORNIA","Redding Rancheria Road, Redding, Shasta County, California, United States",40.5048355,-122.3793887
250,UNITED STATES,I 40 EXIT NO 227,OKEMAH,OKLAHOMA,OKFUSKEE,"I 40 EXIT NO 227, OKEMAH, OKLAHOMA","Okemah, Okfuskee County, Oklahoma, 74859, United States",35.4325854,-96.3050064
251,UNITED STATES,1401 E BROAD ST,RICHMOND,VIRGINIA,RICHMOND (CITY),"1401 E BROAD ST, RICHMOND, VIRGINIA","VDOT General Building, 1401, East Broad Street, Shockoe Slip, Richmond, Virginia, 23223, United States",37.538322199999996,-77.43051193837101
252,UNITED STATES,2365 US HIGHWAY 19 N,PERRY,FLORIDA,TAYLOR,"2365 US HIGHWAY 19 N, PERRY, FLORIDA","Perry, Taylor County, Florida, United States",30.1174351,-83.5818147
253,UNITED STATES,1220 L ST NW STE 750,WASHINGTON,DISTRICT OF COLUMBIA,DISTRICT OF COLUMBIA,"1220 L ST NW STE 750, WASHINGTON, DISTRICT OF COLUMBIA","Washington, District of Columbia, United States",38.8950368,-77.0365427
254,UNITED STATES,5 BUCK ISLAND RD,BLUFFTON,SOUTH CAROLINA,BEAUFORT,"5 BUCK ISLAND RD, BLUFFTON, SOUTH CAROLINA","5, Buck Island Road, Crowne at Old Carolina, Bluffton, Beaufort County, South Carolina, 29910, United States",32.277593798391834,-80.8729237835954
255,UNITED STATES,109 S 1ST ST,ROSLYN,WASHINGTON,KITTITAS,"109 S 1ST ST, ROSLYN, WASHINGTON","109, South 1st Street, Roslyn, Kittitas County, Washington, 98941, United States",47.22247112244898,-120.99274202040817
256,UNITED STATES,516 LAKE REGION RD STE 132,HULBERT,OKLAHOMA,CHEROKEE,"516 LAKE REGION RD STE 132, HULBERT, OKLAHOMA","Hulbert, Cherokee County, Oklahoma, United States",35.9325964,-95.141348
257,UNITED STATES,9823 TAPESTRY PARK CIR UNIT 115,JACKSONVILLE,FLORIDA,DUVAL,"9823 TAPESTRY PARK CIR UNIT 115, JACKSONVILLE, FLORIDA","Jacksonville, Duval County, Florida, United States",30.3321838,-81.655651
258,UNITED STATES,323 N MADISON RD STE C,ORANGE,VIRGINIA,ORANGE,"323 N MADISON RD STE C, ORANGE, VIRGINIA","Orange County, Virginia, United States",38.2490349,-78.013983
259,UNITED STATES,1 PAIUTE DR,LAS VEGAS,NEVADA,CLARK,"1 PAIUTE DR, LAS VEGAS, NEVADA","1, Paiute Drive, Las Vegas, Clark County, Nevada, 89106, United States",36.185125,-115.14004
260,UNITED STATES,5401 OLD REDWOOD HWY STE 200,PETALUMA,CALIFORNIA,SONOMA,"5401 OLD REDWOOD HWY STE 200, PETALUMA, CALIFORNIA","Petaluma, Sonoma County, California, United States",38.2325829,-122.636465
261,UNITED STATES,"COND. PANORAMA PLAZA 1 CALLE 11, APT 1402",SAN JUAN,PUERTO RICO,SAN JUAN,"COND. PANORAMA PLAZA 1 CALLE 11, APT 1402, SAN JUAN, PUERTO RICO","San Juan, Puerto Rico, United States",18.465299,-66.116666
262,UNITED STATES,2716 6TH AVE,SACRAMENTO,CALIFORNIA,SACRAMENTO,"2716 6TH AVE, SACRAMENTO, CALIFORNIA","2716, 6th Avenue, Curtis Park, Sacramento, Sacramento County, California, 95818, United States",38.5459254120603,-121.47801952261307
263,UNITED STATES,365 S COUNTY ROAD 550 E,AVON,INDIANA,HENDRICKS,"365 S COUNTY ROAD 550 E, AVON, INDIANA","Avon, Hendricks County, Indiana, 46123, United States",39.7628227,-86.3997168
264,UNITED STATES,505 DEADRICK ST STE 700,NASHVILLE,Tennessee,DAVIDSON,"505 DEADRICK ST STE 700, NASHVILLE, Tennessee","Nashville-Davidson, Davidson County, Tennessee, United States",36.1622767,-86.7742984
265,UNITED STATES,P.O. BOX 887,RED LODGE,MONTANA,CARBON,"P.O. BOX 887, RED LODGE, MONTANA","Red Lodge, Carbon County, Montana, 59068, United States",45.1859038,-109.2470622
266,UNITED STATES,369 MAIN STREET,JACKMAN,MAINE,SOMERSET,"369 MAIN STREET, JACKMAN, MAINE","Main Street, Parlin Pond Township, Jackman, Somerset County, Maine, 04945, United States",45.580976,-70.1715242
267,UNITED STATES,P.O. BOX 621,HONOLULU,HAWAII,HONOLULU,"P.O. BOX 621, HONOLULU, HAWAII","Honolulu, Honolulu County, Hawaii, 96813, United States",21.304547,-157.855676
268,UNITED STATES,901 LINCOLN DR W STE 200,MARLTON,NEW JERSEY,BURLINGTON,"901 LINCOLN DR W STE 200, MARLTON, NEW JERSEY","Marlton, Evesham Township, Burlington County, New Jersey, United States",39.9005585,-74.93389105589023
269,UNITED STATES,1220 MOUNT OLIVET ROAD NE,WASHINGTON,DISTRICT OF COLUMBIA,DISTRICT OF COLUMBIA,"1220 MOUNT OLIVET ROAD NE, WASHINGTON, DISTRICT OF COLUMBIA","1220, Mount Olivet Road Northeast, Trinidad, Washington, District of Columbia, 20002, United States",38.910277949999994,-76.98462380609496
270,UNITED STATES,3615 SUPERIOR AVE E STE 3104A,CLEVELAND,OHIO,CUYAHOGA,"3615 SUPERIOR AVE E STE 3104A, CLEVELAND, OHIO","Cleveland, Cuyahoga County, Ohio, United States",41.4996574,-81.6936772
271,UNITED STATES,1505 DILLINGHAM BLVD RM 205,HONOLULU,HAWAII,HONOLULU,"1505 DILLINGHAM BLVD RM 205, HONOLULU, HAWAII","Honolulu, Honolulu County, Hawaii, 96813, United States",21.304547,-157.855676
272,UNITED STATES,241 RALPH MCGILL BLVD BIN 10071,ATLANTA,GEORGIA,FULTON,"241 RALPH MCGILL BLVD BIN 10071, ATLANTA, GEORGIA","Atlanta, Fulton County, Georgia, 30303, United States",33.7489924,-84.3902644
273,UNITED STATES,1455 W DR,LAUREL,MISSISSIPPI,JONES,"1455 W DR, LAUREL, MISSISSIPPI","1455, West Drive, Queensburg, Laurel, Jones County, Mississippi, 39440, United States",31.66701030253999,-89.15518006088418
274,UNITED STATES,1420 CENTRAL PARK BLVD STE 204,FREDERICKSBURG,VIRGINIA,FREDERICKSBURG (CITY),"1420 CENTRAL PARK BLVD STE 204, FREDERICKSBURG, VIRGINIA","Fredericksburg, Virginia, 22401, United States",38.3031837,-77.4605399
275,UNITED STATES,15310 AMBERLY DR STE 250,TAMPA,FLORIDA,HILLSBOROUGH,"15310 AMBERLY DR STE 250, TAMPA, FLORIDA","Tampa, Hillsborough County, Florida, United States",27.9477595,-82.458444
276,UNITED STATES,123 S INDIANA AVE,ATLANTIC CITY,NEW JERSEY,ATLANTIC,"123 S INDIANA AVE, ATLANTIC CITY, NEW JERSEY","The Claridge Hotel, 123, South Indiana Avenue, Atlantic City, Atlantic County, New Jersey, 08401, United States",39.35772925,-74.43192352595773
277,UNITED STATES,102 MOTOR PKWY STE 410,HAUPPAUGE,NEW YORK,SUFFOLK,"102 MOTOR PKWY STE 410, HAUPPAUGE, NEW YORK","Hauppauge, Town of Smithtown, Suffolk County, New York, 11788, United States",40.8256537,-73.2026138
278,UNITED STATES,1725 ROE CREST DR,NORTH MANKATO,MINNESOTA,NICOLLET,"1725 ROE CREST DR, NORTH MANKATO, MINNESOTA","1725, Roe Crest Drive, North Mankato, Nicollet County, Minnesota, 56003, United States",44.17751367414179,-94.03883858740794
279,UNITED STATES,100 INTERNATIONAL DR FL 23,BALTIMORE,MARYLAND,BALTIMORE (CITY),"100 INTERNATIONAL DR FL 23, BALTIMORE, MARYLAND","Baltimore, Maryland, United States",39.2908816,-76.610759
280,UNITED STATES,91 573 MALAKOLE ST,KAPOLEI,HAWAII,HONOLULU,"91 573 MALAKOLE ST, KAPOLEI, HAWAII","Kapolei, Honolulu County, Hawaii, 96707, United States",21.3340079,-158.077849
281,UNITED STATES,1 RESEARCH CIR,NISKAYUNA,NEW YORK,SCHENECTADY,"1 RESEARCH CIR, NISKAYUNA, NEW YORK","GE Global Research Visitors Center, 1, Research Circle, Town of Niskayuna, Schenectady County, New York, 12309, United States",42.8269417,-73.87777816858326
282,UNITED STATES,1675 GARFIELD DR,GASTONIA,NORTH CAROLINA,GASTON,"1675 GARFIELD DR, GASTONIA, NORTH CAROLINA","1675, Garfield Drive, Gastonia, Gaston County, North Carolina, 28052, United States",35.287543247423486,-81.2274768250041
283,UNITED STATES,970 AUTUMN CLOSE,ALPHARETTA,GEORGIA,FULTON,"970 AUTUMN CLOSE, ALPHARETTA, GEORGIA","Alpharetta, Fulton County, Georgia, United States",34.0709576,-84.2747329
284,UNITED STATES,3-6 3-6C BONNE ESPERANCE,ST THOMAS,VIRGIN ISLANDS OF THE U.S.,ST. THOMAS,"3-6 3-6C BONNE ESPERANCE, ST THOMAS, VIRGIN ISLANDS OF THE U.S.","Saint Thomas, Charlotte Amalie, Saint Thomas - Saint John District, United States Virgin Islands, United States",18.34290815,-64.91889970060265
285,UNITED STATES,10 TECHNOLOGY DR STE 2 B,WEST LEBANON,NEW HAMPSHIRE,GRAFTON,"10 TECHNOLOGY DR STE 2 B, WEST LEBANON, NEW HAMPSHIRE","West Lebanon, Lebanon, Grafton County, New Hampshire, 03784, United States",43.6482811,-72.3102794
286,UNITED STATES,91 VALLEY ST,WILLIMANTIC,CONNECTICUT,WINDHAM,"91 VALLEY ST, WILLIMANTIC, CONNECTICUT","Willimantic Food Co-Op, 91, Valley Street, Main Street Historic District, Willimantic, Windham, Windham County, Connecticut, 06226, United States",41.7135275,-72.2111435
287,UNITED STATES,164 LION RD,FENWICK,WEST VIRGINIA,NICHOLAS,"164 LION RD, FENWICK, WEST VIRGINIA","Fenwick, Nicholas County, West Virginia, 26202, United States",38.228725,-80.5823099
288,UNITED STATES,1206 LASKIN RD STE 201,VIRGINIA BEACH,VIRGINIA,VIRGINIA BEACH (CITY),"1206 LASKIN RD STE 201, VIRGINIA BEACH, VIRGINIA","Virginia Beach, Virginia, United States",36.8529841,-75.9774183
289,UNITED STATES,2400 LONGHORN INDUSTRIAL DR,NEW BRAUNFELS,TEXAS,COMAL,"2400 LONGHORN INDUSTRIAL DR, NEW BRAUNFELS, TEXAS","2400, Longhorn Industrial Drive, New Braunfels, Comal County, Texas, 78130, United States",29.73371,-98.07958
290,UNITED STATES,811 N CATALINA AVE STE 1104,REDONDO BEACH,CALIFORNIA,LOS ANGELES,"811 N CATALINA AVE STE 1104, REDONDO BEACH, CALIFORNIA","Redondo Beach, Los Angeles County, California, 90278, United States",33.8455911,-118.3886766
291,UNITED STATES,22 ROULSTON RD,WINDHAM,NEW HAMPSHIRE,ROCKINGHAM,"22 ROULSTON RD, WINDHAM, NEW HAMPSHIRE","Medicus Healthcare, 22, Roulston Road, Windham, Rockingham County, New Hampshire, 03087, United States",42.8136777,-71.25543082800323
292,UNITED STATES,LOT 20 OLSEN SUBD,CORDOVA,ALASKA,VALDEZ-CORDOVA,"LOT 20 OLSEN SUBD, CORDOVA, ALASKA","Cordova, Chugach, Alaska, 99574, United States",60.5439444,-145.75891
293,UNITED STATES,9406 E STAFFORD,WICHITA,KANSAS,SEDGWICK,"9406 E STAFFORD, WICHITA, KANSAS","9406, East Stafford Street, Pebblebrook, Wichita, Sedgwick County, Kansas, 67207, United States",37.65086394834459,-97.22807252869185
294,UNITED STATES,401 N MICHIGAN AVE STE 2000,CHICAGO,ILLINOIS,COOK,"401 N MICHIGAN AVE STE 2000, CHICAGO, ILLINOIS","Chicago, Cook County, Illinois, United States",41.8755616,-87.6244212
295,UNITED STATES,NORTHERN BLVD,OLD WESTBURY,NEW YORK,NASSAU,"NORTHERN BLVD, OLD WESTBURY, NEW YORK","Village of Old Westbury, Town of North Hempstead, Nassau County, New York, 11568, United States",40.7887113,-73.5995717
296,UNITED STATES,1195 DEE KENNEDY RD,AUBURN,GEORGIA,BARROW,"1195 DEE KENNEDY RD, AUBURN, GEORGIA","Auburn, Barrow County, Georgia, 30011, United States",34.0136622,-83.8273503
297,UNITED STATES,353 JD YARNELL INDUSTRIAL PKWY,CLINTON,TENNESSEE,ANDERSON,"353 JD YARNELL INDUSTRIAL PKWY, CLINTON, TENNESSEE","Clinton, Anderson County, Tennessee, 37716, United States",36.1034126,-84.1318632
298,UNITED STATES,6900 K AVE,PLANO,TEXAS,COLLIN,"6900 K AVE, PLANO, TEXAS","6900, K Avenue, Plano, Collin County, Texas, 75074, United States",33.067287,-96.686468
299,UNITED STATES,571 SILVERON BLVD,FLOWER MOUND,TEXAS,DENTON,"571 SILVERON BLVD, FLOWER MOUND, TEXAS","571, Silveron Boulevard, Flower Mound, Tarrant County, Texas, 75028, United States",32.99219084210983,-97.05418184337411
300,UNITED STATES,150 RUSTCRAFT RD,DEDHAM,MASSACHUSETTS,NORFOLK,"150 RUSTCRAFT RD, DEDHAM, MASSACHUSETTS","150, Rustcraft Road, Endicott, Dedham, Norfolk County, Massachusetts, 02026, United States",42.23202125,-71.16751116564339
301,UNITED STATES,6750 W MILLBROOK RD,REMUS,MICHIGAN,ISABELLA,"6750 W MILLBROOK RD, REMUS, MICHIGAN","Remus, Wheatland Township, Mecosta County, Michigan, 49340, United States",43.5966952,-85.1447524
302,UNITED STATES,47 S MAIN ST,RICHFIELD,UTAH,SEVIER,"47 S MAIN ST, RICHFIELD, UTAH","47, South Main Street, Richfield, Sevier County, Utah, 84701, United States",38.767419265306124,-112.08465336734695
303,UNITED STATES,14150 SW KARL BRAUN DR,BEAVERTON,OREGON,WASHINGTON,"14150 SW KARL BRAUN DR, BEAVERTON, OREGON","50, 14150, Southwest Karl Braun Drive, Tektronix Industrial Park, Cedar Hills, Beaverton, Washington County, Oregon, 97077, United States",45.4992126,-122.82323245095779
304,UNITED STATES,3720 ZIP INDUSTRIAL BLVD SE,ATLANTA,GEORGIA,FULTON,"3720 ZIP INDUSTRIAL BLVD SE, ATLANTA, GEORGIA","3720, Zip Industrial Boulevard Southeast, Plunket Town, Atlanta, Fulton County, Georgia, 30354, United States",33.6538155,-84.388655
305,UNITED STATES,1500 WILSON WAY SE STE 215,SMYRNA,GEORGIA,COBB,"1500 WILSON WAY SE STE 215, SMYRNA, GEORGIA","Smyrna, Cobb County, Georgia, United States",33.883887,-84.5147454
306,UNITED STATES,2380 MAIN ST,SAN DIEGO,CALIFORNIA,SAN DIEGO,"2380 MAIN ST, SAN DIEGO, CALIFORNIA","2380, Main Street, Chula Vista, San Diego County, California, 91911, United States",32.596329,-117.083003
307,UNITED STATES,14300 GRACKLE CT,GAINESVILLE,VIRGINIA,PRINCE WILLIAM,"14300 GRACKLE CT, GAINESVILLE, VIRGINIA","14300, Grackle Court, Meadows at Morris Farm, Gainesville, Prince William County, Virginia, 20155, United States",38.7681603,-77.61230145
308,UNITED STATES,7000 COLUMBIA GATEWAY DR STE 100,COLUMBIA,MARYLAND,HOWARD,"7000 COLUMBIA GATEWAY DR STE 100, COLUMBIA, MARYLAND","Columbia, Howard County, Maryland, United States",39.1938429,-76.86460919353361
309,UNITED STATES,615 HIGHWAY 52 W,VELVA,NORTH DAKOTA,MCHENRY,"615 HIGHWAY 52 W, VELVA, NORTH DAKOTA","Velva, McHenry County, North Dakota, United States",48.05612,-100.929317
310,UNITED STATES,4520 BROADWAY,QUINCY,ILLINOIS,ADAMS,"4520 BROADWAY, QUINCY, ILLINOIS","4520, Broadway Street, Quincy, Adams County, Illinois, 62305, United States",39.93519862932063,-91.34358892968018
311,UNITED STATES,21 MORGAN RD,FORT MONTGOMERY,NEW YORK,ORANGE,"21 MORGAN RD, FORT MONTGOMERY, NEW YORK","21, Morgan Road, Village of Highland Falls, Town of Highlands, Orange County, New York, 10928, United States",41.3513899,-73.9754329
312,UNITED STATES,3436 RIVERS AVE STE 2A,NORTH CHARLESTON,SOUTH CAROLINA,CHARLESTON,"3436 RIVERS AVE STE 2A, NORTH CHARLESTON, SOUTH CAROLINA","North Charleston, Charleston County, South Carolina, United States",32.8546197,-79.9748103
313,UNITED STATES,150 AIRPORT DR STE 11,WESTMINSTER,MARYLAND,CARROLL,"150 AIRPORT DR STE 11, WESTMINSTER, MARYLAND","Westminster, Carroll County, Maryland, United States",39.5752639,-76.9959277
314,UNITED STATES,7355 GREEN ACRES DR,GLEN BURNIE,MARYLAND,ANNE ARUNDEL,"7355 GREEN ACRES DR, GLEN BURNIE, MARYLAND","Glen Burnie, Anne Arundel County, Maryland, United States",39.1595439,-76.61515136556432
315,UNITED STATES,1717 STEWART ST,SANTA MONICA,CALIFORNIA,LOS ANGELES,"1717 STEWART ST, SANTA MONICA, CALIFORNIA","1717, Stewart Street, Santa Monica, Los Angeles County, California, 90404, United States",34.03133760095222,-118.46716753823922
316,UNITED STATES,"1449 7TH ST., SUITE 425",DENVER,COLORADO,DENVER,"1449 7TH ST., SUITE 425, DENVER, COLORADO","Denver, Colorado, United States",39.7392364,-104.984862
317,UNITED STATES,URB VICTOR ROJAS 1 16 CALLE ARAGON,ARECIBO,PUERTO RICO,ARECIBO,"URB VICTOR ROJAS 1 16 CALLE ARAGON, ARECIBO, PUERTO RICO","Arecibo, Puerto Rico, United States",18.4701713,-66.7181606
318,UNITED STATES,7810 S 228TH ST,SEATTLE,WASHINGTON,KING,"7810 S 228TH ST, SEATTLE, WASHINGTON","Seattle, King County, Washington, United States",47.6038321,-122.330062
319,UNITED STATES,4203 GARDENDALE STREET SUITE C210,SAN ANTONIO,TEXAS,BEXAR,"4203 GARDENDALE STREET SUITE C210, SAN ANTONIO, TEXAS","San Antonio, Bexar County, Texas, United States",29.4246002,-98.4951405
320,UNITED STATES,12606 OLD NUMBER SIX HWY,EUTAWVILLE,SOUTH CAROLINA,ORANGEBURG,"12606 OLD NUMBER SIX HWY, EUTAWVILLE, SOUTH CAROLINA","12606, Old Number Six Highway, Eutawville, Orangeburg County, South Carolina, 29048, United States",33.40288,-80.3166
321,UNITED STATES,351 WOODLAWN AVE,AURORA,ILLINOIS,KANE,"351 WOODLAWN AVE, AURORA, ILLINOIS","351, Woodlawn Avenue, Aurora, Aurora Township, Kane County, Illinois, 60506, United States",41.75516230126229,-88.32713871504876
322,UNITED STATES,15 CHATTAM CENTER S,SAVANNAH,GEORGIA,CHATHAM,"15 CHATTAM CENTER S, SAVANNAH, GEORGIA","Savannah, Chatham County, Georgia, United States",32.0564572,-81.0951271
323,UNITED STATES,385 MEETING ST STE 100,CHARLESTON,SOUTH CAROLINA,CHARLESTON,"385 MEETING ST STE 100, CHARLESTON, SOUTH CAROLINA","Charleston, Charleston County, South Carolina, United States",32.7876012,-79.9402728
324,UNITED STATES,401 W MAIN ST STE 203,LEXINGTON,KENTUCKY,FAYETTE,"401 W MAIN ST STE 203, LEXINGTON, KENTUCKY","Lexington, Fayette County, Kentucky, United States",38.0464066,-84.4970393
325,UNITED STATES,1 PENN PLAZA #2814,NEW YORK,NEW YORK,NEW YORK,"1 PENN PLAZA #2814, NEW YORK, NEW YORK","One Penn Plaza, 1, Pennsylvania Plaza, Chelsea District, Manhattan, New York County, City of New York, New York, 10119, United States",40.75109885,-73.99197357789494
326,UNITED STATES,1041 WOODWARD WAY,FORT COLLINS,COLORADO,LARIMER,"1041 WOODWARD WAY, FORT COLLINS, COLORADO","1041, Woodward Way, Buckingham, Fort Collins, Larimer County, Colorado, 80524, United States",40.587524105703224,-105.05837420658541
327,UNITED STATES,4242 US HIGHWAY 1,MONMOUTH JUNCTION,NEW JERSEY,MIDDLESEX,"4242 US HIGHWAY 1, MONMOUTH JUNCTION, NEW JERSEY","Monmouth Junction, South Brunswick, Middlesex County, New Jersey, United States",40.384022200000004,-74.53308403231352
328,UNITED STATES,107885 US HIGHWAY 395,COLEVILLE,CALIFORNIA,MONO,"107885 US HIGHWAY 395, COLEVILLE, CALIFORNIA","Coleville, Mono County, California, United States",38.5662988,-119.5071119
329,UNITED STATES,772 CORPORATE CIR,NEW CUMBERLAND,PENNSYLVANIA,YORK,"772 CORPORATE CIR, NEW CUMBERLAND, PENNSYLVANIA","New Cumberland, Cumberland County, Pennsylvania, United States",40.2323122,-76.8846956
330,UNITED STATES,1295 AGVIK ST,BARROW,ALASKA,NORTH SLOPE,"1295 AGVIK ST, BARROW, ALASKA","Agvik Street, Browerville, Utqiaġvik, North Slope, Alaska, 99273, United States",71.292005,-156.783334
331,UNITED STATES,13 N 23RD ST,BILLINGS,MONTANA,YELLOWSTONE,"13 N 23RD ST, BILLINGS, MONTANA","13, North 23rd Street, West Downtown, Billings, Yellowstone County, Montana, 59101, United States",45.784424598447416,-108.4988837813931
332,UNITED STATES,3005 CENTER GREEN DR STE 205,BOULDER,COLORADO,BOULDER,"3005 CENTER GREEN DR STE 205, BOULDER, COLORADO","Boulder, Boulder County, Colorado, United States",40.0154155,-105.270241
333,UNITED STATES,1237 HANLAN LN,STEVENSVILLE,MONTANA,RAVALLI,"1237 HANLAN LN, STEVENSVILLE, MONTANA","Stevensville, Ravalli County, Montana, United States",46.510407,-114.094385
334,UNITED STATES,3449 E REZANOF DR,KODIAK,ALASKA,KODIAK ISLAND,"3449 E REZANOF DR, KODIAK, ALASKA","3449, East Rezanof Drive, Kodiak, Kodiak Island, Alaska, 99615, United States",57.81220260655738,-152.35431518032786
335,UNITED STATES,224 STATE ST,CONNEAUT,OHIO,ASHTABULA,"224 STATE ST, CONNEAUT, OHIO","Conneaut Telephone Company, 224, State Street, Downtown Conneaut, Conneaut, Ashtabula County, Ohio, 44030, United States",41.944363,-80.5547669
336,UNITED STATES,301 COMMERCE BLVD,JERSEYVILLE,ILLINOIS,JERSEY,"301 COMMERCE BLVD, JERSEYVILLE, ILLINOIS","301, Commerce Boulevard, Jerseyville, Jersey County, Illinois, 62052, United States",39.105595,-90.323028
337,UNITED STATES,3172 STATE HWY 16 N,BANDERA,TEXAS,BANDERA,"3172 STATE HWY 16 N, BANDERA, TEXAS","Bandera County, Texas, United States",29.7643475,-99.234526
338,UNITED STATES,334 FRONT ST,KETCHIKAN,ALASKA,KETCHIKAN GATEWAY,"334 FRONT ST, KETCHIKAN, ALASKA","334, Front Street, Ketchikan, Ketchikan Gateway, Alaska, 99901, United States",55.342289711111114,-131.6478431333333
339,UNITED STATES,26 N OTIS,DE LEON,TEXAS,COMANCHE,"26 N OTIS, DE LEON, TEXAS","De Leon, Comanche County, Texas, United States",32.1104362,-98.5371496
340,UNITED STATES,1600 SW WESTERN BLVD,CORVALLIS,OREGON,BENTON,"1600 SW WESTERN BLVD, CORVALLIS, OREGON","University Plaza, 1600 SW Western Avenue, Southwest Western Boulevard, Corvallis, Benton County, Oregon, 97333, United States",44.55946265,-123.27465926417314
341,UNITED STATES,225 NORTH AVE NW,ATLANTA,GEORGIA,FULTON,"225 NORTH AVE NW, ATLANTA, GEORGIA","225, North Avenue Northwest, Atlanta, Fulton County, Georgia, 30313, United States",33.7722178,-84.3944354
342,UNITED STATES,255 S STATE 368,ROOSEVELT,UTAH,DUCHESNE,"255 S STATE 368, ROOSEVELT, UTAH","Roosevelt, Duchesne County, Utah, United States",40.299403,-109.9887605
343,UNITED STATES,1001 SOUTH VALLEY VIEW BOULEVARD,LAS VEGAS,NEVADA,CLARK,"1001 SOUTH VALLEY VIEW BOULEVARD, LAS VEGAS, NEVADA","1001, South Valley View Boulevard, Las Vegas, Clark County, Nevada, 89102, United States",36.158814,-115.192362
344,UNITED STATES,3800 COMMONWEALTH BOULEVARD,TALLAHASSEE,FLORIDA,LEON,"3800 COMMONWEALTH BOULEVARD, TALLAHASSEE, FLORIDA","Commonwealth Boulevard, Tallahassee, Leon County, Florida, 32303, United States",30.4745775,-84.3513354
345,UNITED STATES,2077 AIRPORT DR STE 18,GREEN BAY,WISCONSIN,BROWN,"2077 AIRPORT DR STE 18, GREEN BAY, WISCONSIN","Green Bay, Brown County, Wisconsin, United States",44.5126379,-88.0125794
346,UNITED STATES,6150 E PONCE DE LEON AVE,STONE MOUNTAIN,GEORGIA,DEKALB,"6150 E PONCE DE LEON AVE, STONE MOUNTAIN, GEORGIA","6150, East Ponce de Leon Avenue, Stone Mountain, DeKalb County, Georgia, 30083, United States",33.812483881152986,-84.1736878451083
347,UNITED STATES,27789 MOUND RD STE 200,WARREN,MICHIGAN,MACOMB,"27789 MOUND RD STE 200, WARREN, MICHIGAN","Warren, Macomb County, Michigan, United States",42.4932575,-83.0062746
348,UNITED STATES,2250 HIGHWAY 93 S,KALISPELL,MONTANA,FLATHEAD,"2250 HIGHWAY 93 S, KALISPELL, MONTANA","Kalispell, Flathead County, Montana, 59901, United States",48.202158,-114.315321
349,UNITED STATES,211 EAST DIVINE STREET,DUNN,NORTH CAROLINA,HARNETT,"211 EAST DIVINE STREET, DUNN, NORTH CAROLINA","211, East Divine Street, Dunn, Harnett County, North Carolina, 28334, United States",35.30565520820407,-78.60994627542229
350,UNITED STATES,401 N HARVEY AVE,OKLAHOMA CITY,OKLAHOMA,OKLAHOMA,"401 N HARVEY AVE, OKLAHOMA CITY, OKLAHOMA","401, North Harvey Avenue, Central Business District, Oklahoma City, Oklahoma County, Oklahoma, 73103, United States",35.471061,-97.517976
351,UNITED STATES,199 BORTON LANDING RD,MOORESTOWN,NEW JERSEY,BURLINGTON,"199 BORTON LANDING RD, MOORESTOWN, NEW JERSEY","199, Borton Landing Road, Moorestown Township, Burlington County, New Jersey, 08057, United States",39.976580743665096,-74.9185333496197
352,UNITED STATES,3800 CENTERPOINT DR 502,ANCHORAGE,ALASKA,ANCHORAGE,"3800 CENTERPOINT DR 502, ANCHORAGE, ALASKA","Anchorage, Alaska, 99501, United States",61.2163129,-149.894852
353,UNITED STATES,4775 CENTENNIAL BLVD STE 130,COLORADO SPRINGS,COLORADO,EL PASO,"4775 CENTENNIAL BLVD STE 130, COLORADO SPRINGS, COLORADO","Colorado Springs, El Paso County, Colorado, 80903, United States",38.8339578,-104.825348
354,UNITED STATES,1023 S KIMBREL AVE,PANAMA CITY,FLORIDA,BAY,"1023 S KIMBREL AVE, PANAMA CITY, FLORIDA","Panama City, Bay County, Florida, United States",30.1600827,-85.6545729
355,UNITED STATES,3159 SCHRADER RD STE 103,DOVER,NEW JERSEY,MORRIS,"3159 SCHRADER RD STE 103, DOVER, NEW JERSEY","Dover, Morris County, New Jersey, 07801, United States",40.883988,-74.5621025
356,UNITED STATES,35 NEW ENGLAND BUSINESS CENTER DR STE 200,ANDOVER,MASSACHUSETTS,ESSEX,"35 NEW ENGLAND BUSINESS CENTER DR STE 200, ANDOVER, MASSACHUSETTS","Andover, Essex County, Massachusetts, United States",42.65717,-71.1408776
357,UNITED STATES,1420 SPRING HILL RD STE 600,MC LEAN,VIRGINIA,FAIRFAX,"1420 SPRING HILL RD STE 600, MC LEAN, VIRGINIA","Mc Lean Avenue, Oakland, Henrico County, Virginia, 23231, United States",37.492661,-77.397642
358,UNITED STATES,12930 SARATOGA AVE STE C6,SARATOGA,CALIFORNIA,SANTA CLARA,"12930 SARATOGA AVE STE C6, SARATOGA, CALIFORNIA","Saratoga, Santa Clara County, California, 95070, United States",37.2638324,-122.0230146
359,UNITED STATES,1669 W PEMBROKE AVE,HAMPTON,VIRGINIA,HAMPTON (CITY),"1669 W PEMBROKE AVE, HAMPTON, VIRGINIA","1669, West Pembroke Avenue, West Hampton, Hampton, Virginia, 23661, United States",37.01491455,-76.38118510144449
360,UNITED STATES,3245 STATE RD,SELLERSVILLE,PENNSYLVANIA,BUCKS,"3245 STATE RD, SELLERSVILLE, PENNSYLVANIA","East Old State Road, Derstines, West Rockhill, Bucks County, Pennsylvania, 18960, United States",40.348712,-75.309123
361,UNITED STATES,4571 VILLAGE AVE,NORFOLK,VIRGINIA,NORFOLK (CITY),"4571 VILLAGE AVE, NORFOLK, VIRGINIA","4571, Village Avenue, Norfolk Industrial Park, Norfolk, Virginia, 23502, United States",36.861767799999996,-76.23058383475134
362,UNITED STATES,3 MONROE PKWY # P-450,LAKE OSWEGO,OREGON,CLACKAMAS,"3 MONROE PKWY # P-450, LAKE OSWEGO, OREGON","PostalAnnex, 3, Monroe Parkway, Mountain Park, Lake Oswego, Multnomah County, Oregon, 97035, United States",45.433926,-122.7033964
363,UNITED STATES,4025 THOREAU DR,COLORADO SPRINGS,COLORADO,EL PASO,"4025 THOREAU DR, COLORADO SPRINGS, COLORADO","4025, Thoreau Drive, Colorado Springs, El Paso County, Colorado, 80916, United States",38.79096870283625,-104.75354240444872
364,UNITED STATES,500 W OFFICE CTR DR,FORT WASHINGTON,PENNSYLVANIA,MONTGOMERY,"500 W OFFICE CTR DR, FORT WASHINGTON, PENNSYLVANIA","Fort Washington, Upper Dublin Township, Montgomery County, Pennsylvania, United States",40.14785315,-75.18972428892617
365,UNITED STATES,1735 N LYNN ST STE 710,ARLINGTON,VIRGINIA,ARLINGTON,"1735 N LYNN ST STE 710, ARLINGTON, VIRGINIA","Arlington County, Virginia, United States",38.8769326,-77.0893094
366,UNITED STATES,5253 EL CAJON BLVD STE B,SAN DIEGO,CALIFORNIA,SAN DIEGO,"5253 EL CAJON BLVD STE B, SAN DIEGO, CALIFORNIA","San Diego, San Diego County, California, United States",32.7174202,-117.1627728
367,UNITED STATES,5724 NORTHRIDGE DR,GURNEE,ILLINOIS,LAKE,"5724 NORTHRIDGE DR, GURNEE, ILLINOIS","5724, Northridge Drive, Gurnee, Lake County, Illinois, 60031, United States",42.37757572240813,-87.94342381869632
368,UNITED STATES,617 EASTLAKE AVE E STE 400,SEATTLE,WASHINGTON,KING,"617 EASTLAKE AVE E STE 400, SEATTLE, WASHINGTON","Seattle, King County, Washington, United States",47.6038321,-122.330062
369,UNITED STATES,1505 WEST AMADOR,LAS CRUCES,NEW MEXICO,DOÑA ANA,"1505 WEST AMADOR, LAS CRUCES, NEW MEXICO","1505, West Amador Avenue, Las Cruces, Doña Ana County, New Mexico, 88005, United States",32.30413635794388,-106.79560149594052
370,UNITED STATES,1731 PATTERSON AVE,DELAND,FLORIDA,VOLUSIA,"1731 PATTERSON AVE, DELAND, FLORIDA","1731, Patterson Avenue, DeLand, Volusia County, Florida, 32724, United States",29.0601339,-81.2985635
371,UNITED STATES,517 FIRESIDE LN,CHERRY HILL,NEW JERSEY,CAMDEN,"517 FIRESIDE LN, CHERRY HILL, NEW JERSEY","517, Fireside Lane, Woodcrest, Cherry Hill Township, Camden County, New Jersey, 08003, United States",39.8732067,-74.98801704635068
372,UNITED STATES,15 PROGRESS DR,SHELTON,CONNECTICUT,FAIRFIELD,"15 PROGRESS DR, SHELTON, CONNECTICUT","15, Progress Drive, Shelton, Fairfield County, Connecticut, 06484, United States",41.275516499999995,-73.13281705738925
373,UNITED STATES,135 W ILLINOIS AVE,SOUTHERN PINES,NORTH CAROLINA,MOORE,"135 W ILLINOIS AVE, SOUTHERN PINES, NORTH CAROLINA","135, West Illinois Avenue, Southern Pines, Moore County, North Carolina, 28387, United States",35.17126559183673,-79.39755612244898
374,UNITED STATES,4609 AMBER DR,MCDONOUGH,GEORGIA,ROCKDALE,"4609 AMBER DR, MCDONOUGH, GEORGIA","Amber Chase Drive, McDonough, Henry County, Georgia, 30253, United States",33.4452817,-84.1631222
375,UNITED STATES,4250 INDUSTRIAL CENTER LN NW SUITE 100,ACWORTH,GEORGIA,PAULDING,"4250 INDUSTRIAL CENTER LN NW SUITE 100, ACWORTH, GEORGIA","Acworth, Cobb County, Georgia, United States",34.0659329,-84.6768796
376,UNITED STATES,301 S PARK AVE,TUCSON,ARIZONA,PIMA,"301 S PARK AVE, TUCSON, ARIZONA","301, South Park Avenue, Barrio San Antonio, Tucson, Pima County, Arizona, 85719, United States",32.218399,-110.956232
377,UNITED STATES,34 STAUFFER LN,EPHRATA,PENNSYLVANIA,LANCASTER,"34 STAUFFER LN, EPHRATA, PENNSYLVANIA","Ephrata, Lancaster County, Pennsylvania, 17522, United States",40.1799111,-76.1789242
378,UNITED STATES,2688 N ARDENWOOD DR,BATON ROUGE,LOUISIANA,EAST BATON ROUGE,"2688 N ARDENWOOD DR, BATON ROUGE, LOUISIANA","2688, North Ardenwood Drive, Howell Park Terrace, Smiley Heights, Baton Rouge, East Baton Rouge Parish, Louisiana, 70805, United States",30.47248023989172,-91.13009939959065
379,UNITED STATES,11601 WILSHIRE BLVD STE 900,LOS ANGELES,CALIFORNIA,LOS ANGELES,"11601 WILSHIRE BLVD STE 900, LOS ANGELES, CALIFORNIA","Breast Cancer Car Donations Los Angeles, 11601, Wilshire Boulevard, Brentwood, Los Angeles, Los Angeles County, CAL Fire Southern Region, California, 90025, United States",34.04816115,-118.46325027774085
380,UNITED STATES,27966 E KNIK RIVER RD,PALMER,ALASKA,MATANUSKA-SUSITNA,"27966 E KNIK RIVER RD, PALMER, ALASKA","Palmer, Matanuska-Susitna, Alaska, 99645, United States",61.5995703,-149.11109
381,UNITED STATES,373 W NORTH ST STE B,DOVER,DELAWARE,KENT,"373 W NORTH ST STE B, DOVER, DELAWARE","Dover, Kent County, Delaware, United States",39.158168,-75.5243682
382,UNITED STATES,6080 E OVERLAND CIR,ANAHEIM,CALIFORNIA,ORANGE,"6080 E OVERLAND CIR, ANAHEIM, CALIFORNIA","6020,6040,6060,6080, East Overland Circle, Anaheim Hills, Anaheim, Orange County, CAL Fire Southern Region, California, 92807, United States",33.839848950000004,-117.77580517297571
383,UNITED STATES,4 SOUTHWELL CT,COLUMBIA,SOUTH CAROLINA,RICHLAND,"4 SOUTHWELL CT, COLUMBIA, SOUTH CAROLINA","4, Southwell Court, Sims, Columbia, Richland County, South Carolina, 29209, United States",33.95689818190399,-80.96155442925956
384,UNITED STATES,94-387 PUNONO ST,MILILANI,HAWAII,HONOLULU,"94-387 PUNONO ST, MILILANI, HAWAII","Mililani Town, Honolulu County, Hawaii, 96789, United States",21.4508308,-158.0095783
385,UNITED STATES,1107 4TH ST,HAMPTON,ILLINOIS,ROCK ISLAND,"1107 4TH ST, HAMPTON, ILLINOIS","1107, 4th Street, Hampton, Rock Island County, Illinois, 61256, United States",41.550885,-90.399114
386,UNITED STATES,8455 HWY 85 BLDG 500 STE 210,RIVERDALE,GEORGIA,CLAYTON,"8455 HWY 85 BLDG 500 STE 210, RIVERDALE, GEORGIA","Riverdale, Clayton County, Georgia, United States",33.5726113,-84.4132594
387,UNITED STATES,2890 MARKET LOOP,SOUTHLAKE,TEXAS,TARRANT,"2890 MARKET LOOP, SOUTHLAKE, TEXAS","Market Loop, Southlake, Tarrant County, Texas, 76092, United States",32.9346423,-97.1068218
388,UNITED STATES,4 INDUSTRIAL PARK DRIVE SUITE D,WALDORF,MARYLAND,CHARLES,"4 INDUSTRIAL PARK DRIVE SUITE D, WALDORF, MARYLAND","Waldorf, Charles County, Maryland, 20601, United States",38.635042999999996,-76.90631608403362
389,UNITED STATES,125 MCCARTY DR BLDG 1,HOUSTON,TEXAS,HARRIS,"125 MCCARTY DR BLDG 1, HOUSTON, TEXAS","Houston, Harris County, Texas, United States",29.7589382,-95.3676974
390,UNITED STATES,1422 TOLLAND TPKE,MANCHESTER,CONNECTICUT,HARTFORD,"1422 TOLLAND TPKE, MANCHESTER, CONNECTICUT","1422, Tolland Turnpike, Manchester, Hartford County, Connecticut, 06042, United States",41.7940191,-72.56518
391,UNITED STATES,14741 W 106TH ST,LENEXA,KANSAS,JOHNSON,"14741 W 106TH ST, LENEXA, KANSAS","14741, West 106th Street, Lenexa, Johnson County, Kansas, 66215, United States",38.93661728120321,-94.75674526256486
392,UNITED STATES,233 SPRING ST,NEW YORK,NEW YORK,NEW YORK,"233 SPRING ST, NEW YORK, NEW YORK","Trader Joe's, 233, Spring Street, Manhattan Community Board 2, Manhattan, New York County, City of New York, New York, 10013, United States",40.7257088,-74.0048369
393,UNITED STATES,466 S SKYLANE DR,DURANGO,COLORADO,LA PLATA,"466 S SKYLANE DR, DURANGO, COLORADO","466, South Skylane Drive, Durango, La Plata County, Colorado, 81303, United States",37.1993381,-107.86975
394,UNITED STATES,6525 E 82ND ST STE 117,INDIANAPOLIS,INDIANA,MARION,"6525 E 82ND ST STE 117, INDIANAPOLIS, INDIANA","Indianapolis, Marion County, Indiana, United States",39.7683331,-86.1583502
395,UNITED STATES,6800 POPLAR AVE STE 120,GERMANTOWN,TENNESSEE,SHELBY,"6800 POPLAR AVE STE 120, GERMANTOWN, TENNESSEE","Germantown, Shelby County, West Tennessee, Tennessee, United States",35.0867577,-89.8100858
396,UNITED STATES,647 ALPHA DR,PITTSBURGH,PENNSYLVANIA,ALLEGHENY,"647 ALPHA DR, PITTSBURGH, PENNSYLVANIA","Pittsburgh, Allegheny County, Pennsylvania, United States",40.4416941,-79.9900861
397,UNITED STATES,11 WARD ST STE 300,SOMERVILLE,MASSACHUSETTS,MIDDLESEX,"11 WARD ST STE 300, SOMERVILLE, MASSACHUSETTS","Somerville, Middlesex County, Massachusetts, United States",42.3875968,-71.0994968
398,UNITED STATES,3651 BIRCHWOOD DR,WAUKEGAN,ILLINOIS,LAKE,"3651 BIRCHWOOD DR, WAUKEGAN, ILLINOIS","3651, Birchwood Drive, Waukegan, Lake County, Illinois, 60085, United States",42.32356217886547,-87.8873504850822
399,UNITED STATES,1328 AZALEA GARDEN RD,NORFOLK,VIRGINIA,NORFOLK (CITY),"1328 AZALEA GARDEN RD, NORFOLK, VIRGINIA","1328, Azalea Garden Road, Norfolk Industrial Park, Estabrook Park, Norfolk, Virginia, 23502, United States",36.86243025,-76.23385956875472
400,UNITED STATES,1205 CRAFTSMAN WAY STE 200,EVERETT,WASHINGTON,SNOHOMISH,"1205 CRAFTSMAN WAY STE 200, EVERETT, WASHINGTON","Everett, Snohomish County, Washington, United States",47.9673056,-122.201399
401,UNITED STATES,3313 132ND ST SW,LYNNWOOD,WASHINGTON,SNOHOMISH,"3313 132ND ST SW, LYNNWOOD, WASHINGTON","Lynnwood, Snohomish County, Washington, 98037, United States",47.8278656,-122.3053932
402,UNITED STATES,3301 COLLEGE AVE,FORT LAUDERDALE,FLORIDA,BROWARD,"3301 COLLEGE AVE, FORT LAUDERDALE, FLORIDA","Fort Lauderdale, Broward County, Florida, United States",26.1223084,-80.1433786
403,UNITED STATES,82 TECHNOLOGY PARK DR,EAST FALMOUTH,MASSACHUSETTS,BARNSTABLE,"82 TECHNOLOGY PARK DR, EAST FALMOUTH, MASSACHUSETTS","East Falmouth, Falmouth, Barnstable County, Massachusetts, 02536, United States",41.5784425,-70.5586401
404,UNITED STATES,"6255 SUNSET BLVD, STE 900",LOS ANGELES,CALIFORNIA,LOS ANGELES,"6255 SUNSET BLVD, STE 900, LOS ANGELES, CALIFORNIA","Los Angeles, Los Angeles County, CAL Fire Southern Region, California, United States",34.0536909,-118.242766
405,UNITED STATES,101 ROME CT,FORT COLLINS,COLORADO,LARIMER,"101 ROME CT, FORT COLLINS, COLORADO","Wasson-ECE Instrumentation, Incorporated, 101, Rome Court, Fort Collins, Larimer County, Colorado, 80524, United States",40.5887817,-105.0339743415129
406,UNITED STATES,964 STANFORD AVE,OAKLAND,CALIFORNIA,ALAMEDA,"964 STANFORD AVE, OAKLAND, CALIFORNIA","964, Stanford Avenue, Golden Gate, North Oakland, Oakland, Alameda County, CAL Fire Northern Region, California, 94608, United States",37.84222809090909,-122.27955349999999
407,UNITED STATES,3001 NEWMARK DR,CHAMPAIGN,ILLINOIS,CHAMPAIGN,"3001 NEWMARK DR, CHAMPAIGN, ILLINOIS","3001, Newmark Drive, Champaign, Champaign County, Illinois, 61822, United States",40.15062532663316,-88.27313211055277
408,UNITED STATES,625 E BUNKER CT,VERNON HILLS,ILLINOIS,LAKE,"625 E BUNKER CT, VERNON HILLS, ILLINOIS","Bunker Court, Vernon Hills, Lake County, Illinois, 60061, United States",42.2339921,-87.9501457
409,UNITED STATES,7923 NIEMAN RD,LENEXA,KANSAS,JOHNSON,"7923 NIEMAN RD, LENEXA, KANSAS","7923, Nieman Road, Shawnee, Johnson County, Kansas, 66214, United States",38.98808826204662,-94.71428724714647
410,UNITED STATES,250 HWY 19,RED WING,MINNESOTA,GOODHUE,"250 HWY 19, RED WING, MINNESOTA","Old Highway 19, Red Wing, Goodhue County, Minnesota, United States",44.552231,-92.648105
411,UNITED STATES,4250 INDUSTRIAL CENTER LN NW SUITE 100,ACWORTH,GEORGIA,COBB,"4250 INDUSTRIAL CENTER LN NW SUITE 100, ACWORTH, GEORGIA","Acworth, Cobb County, Georgia, United States",34.0659329,-84.6768796
412,UNITED STATES,801 ORAPAX ST,NORFOLK,VIRGINIA,NORFOLK (CITY),"801 ORAPAX ST, NORFOLK, VIRGINIA","801, Orapax Street, Norfolk, Virginia, 23507, United States",36.866715400000004,-76.30880626717672
413,UNITED STATES,110A E MAIN ST,ADA,OKLAHOMA,PONTOTOC,"110A E MAIN ST, ADA, OKLAHOMA","East Main Street, Ada, Pontotoc County, Oklahoma, 74820, United States",34.7745254,-96.6752784
414,UNITED STATES,527 VAN NESS AVE,TORRANCE,CALIFORNIA,LOS ANGELES,"527 VAN NESS AVE, TORRANCE, CALIFORNIA","527, Van Ness Avenue, Torrance, Los Angeles County, California, 90501, United States",33.84296803805398,-118.31891760223056
415,UNITED STATES,818 CONNECTICUT AVE NW STE 325,WASHINGTON,DISTRICT OF COLUMBIA,DISTRICT OF COLUMBIA,"818 CONNECTICUT AVE NW STE 325, WASHINGTON, DISTRICT OF COLUMBIA","Washington, District of Columbia, United States",38.8950368,-77.0365427
416,UNITED STATES,10507 TUCKERMAN HEIGHTS CIR,ROCKVILLE,MARYLAND,MONTGOMERY,"10507 TUCKERMAN HEIGHTS CIR, ROCKVILLE, MARYLAND","Rockville, Montgomery County, Maryland, United States",39.0817985,-77.1516844
417,UNITED STATES,27 FORGE PARKWAY,FRANKLIN,MASSACHUSETTS,NORFOLK,"27 FORGE PARKWAY, FRANKLIN, MASSACHUSETTS","27, Forge Parkway, Country View Estates, Franklin, Norfolk County, Massachusetts, 02019, United States",42.0853211,-71.44018085667997
418,UNITED STATES,1300 N MICHAEL DR STE A,WOOD DALE,ILLINOIS,DUPAGE,"1300 N MICHAEL DR STE A, WOOD DALE, ILLINOIS","Wood Dale, DuPage County, Illinois, 60191, United States",41.9633625,-87.9789562
419,UNITED STATES,601 RIVERSIDE AVE,JACKSONVILLE,FLORIDA,DUVAL,"601 RIVERSIDE AVE, JACKSONVILLE, FLORIDA","601, Riverside Avenue, Brooklyn, Jacksonville, Duval County, Florida, 32204, United States",30.3192214,-81.674122
420,UNITED STATES,600 W PEACHTREE ST FL 23,ATLANTA,Georgia,WASHOE,"600 W PEACHTREE ST FL 23, ATLANTA, Georgia","Atlanta, Fulton County, Georgia, 30303, United States",33.7489924,-84.3902644
421,UNITED STATES,117 GATEWAY CENTER DR,ELLSWORTH,MAINE,HANCOCK,"117 GATEWAY CENTER DR, ELLSWORTH, MAINE","117, Gateway Center Drive, Ellsworth, Hancock County, Maine, 04605, United States",44.46866385,-68.37384883044757
422,UNITED STATES,P.O. BOX 150,NESPELEM,WASHINGTON,OKANOGAN,"P.O. BOX 150, NESPELEM, WASHINGTON","Nespelem, Okanogan County, Washington, United States",48.1671004,-118.9747476
423,UNITED STATES,471 MAIN ST,PAINT LICK,KENTUCKY,GARRARD,"471 MAIN ST, PAINT LICK, KENTUCKY","Paint Lick, Garrard County, Kentucky, 40461, United States",37.6167483,-84.4093797
424,UNITED STATES,1506 W 36TH AVE,ANCHORAGE,ALASKA,ANCHORAGE,"1506 W 36TH AVE, ANCHORAGE, ALASKA","1506, West 36th Avenue, Spenard, Anchorage, Alaska, 99503, United States",61.187999643058454,-149.91099362661197
425,UNITED STATES,221 W HIGH ST RM 310,JEFFERSON CITY,MISSOURI,COLE,"221 W HIGH ST RM 310, JEFFERSON CITY, MISSOURI","Jefferson City, Cole County, Missouri, United States",38.577359,-92.1724265
426,UNITED STATES,502 DEADERICK ST,NASHVILLE,TENNESSEE,DAVIDSON,"502 DEADERICK ST, NASHVILLE, TENNESSEE","502, Deaderick Street, Nashville-Davidson, Davidson County, Tennessee, 37219, United States",36.165291546788744,-86.7817607241596
427,UNITED STATES,627 GRANDVIEW AVE,PAWHUSKA,OKLAHOMA,OSAGE,"627 GRANDVIEW AVE, PAWHUSKA, OKLAHOMA","Osage Nation Superintendent's Home, 627, Grandview Avenue, Pawhuska, Osage County, Oklahoma, 74056, United States",36.6658274,-96.34056947095041
428,UNITED STATES,1800 CARILLON BLVD,CINCINNATI,OHIO,HAMILTON,"1800 CARILLON BLVD, CINCINNATI, OHIO","Cincinnati, Hamilton County, Ohio, United States",39.1014537,-84.5124602
429,UNITED STATES,652 MAIN ST,MEDIAPOLIS,IOWA,DES MOINES,"652 MAIN ST, MEDIAPOLIS, IOWA","652, Main Street, Mediapolis, Des Moines County, Iowa, 52637, United States",41.00781526275834,-91.16324589329484
430,UNITED STATES,100 S COTTONWOOD DR,RICHARDSON,TEXAS,DALLAS,"100 S COTTONWOOD DR, RICHARDSON, TEXAS","100, South Cottonwood Drive, Richardson, Dallas County, Texas, 75080, United States",32.951031,-96.766139
431,UNITED STATES,307 N BALL ST,OWOSSO,MICHIGAN,SHIAWASSEE,"307 N BALL ST, OWOSSO, MICHIGAN","307, North Ball Street, Owosso, Shiawassee County, Michigan, 48867, United States",42.99967195918367,-84.17201118367346
432,UNITED STATES,806 NW 8TH ST,PENDLETON,OREGON,UMATILLA,"806 NW 8TH ST, PENDLETON, OREGON","806, Northwest 8th Street, Pendleton, Umatilla County, Oregon, 97801, United States",45.68005657860981,-118.79609084249147
433,UNITED STATES,1000 E UNIVERSITY AVE DEPARTMENT 3434,LARAMIE,WYOMING,ALBANY,"1000 E UNIVERSITY AVE DEPARTMENT 3434, LARAMIE, WYOMING","UW Laboratory School, 1000, East University Avenue, West Side, Laramie, Albany County, Wyoming, 82070, United States",41.3141256,-105.579252
434,UNITED STATES,314 TRUMAN ST,PONCHA SPRINGS,COLORADO,CHAFFEE,"314 TRUMAN ST, PONCHA SPRINGS, COLORADO","314, Truman Street, Poncha Springs, Chaffee County, Colorado, 81242, United States",38.50888908352513,-106.07540230892447
435,UNITED STATES,3901 LIBDBERGH DR.,JONESBORO,ARKANSAS,CRAIGHEAD,"3901 LIBDBERGH DR., JONESBORO, ARKANSAS","Jonesboro, Craighead County, Arkansas, United States",35.8272257,-90.6949871
436,UNITED STATES,"3 BATTERYMARCH PARK, SUITE 200",QUINCY,MASSACHUSETTS,NORFOLK,"3 BATTERYMARCH PARK, SUITE 200, QUINCY, MASSACHUSETTS","Quincy, Norfolk County, Massachusetts, United States",42.2509914,-71.0037374
437,UNITED STATES,1300 E SEYMOUR ST,MUNCIE,INDIANA,DELAWARE,"1300 E SEYMOUR ST, MUNCIE, INDIANA","1300, East Seymour Street, Muncie, Delaware County, Indiana, 47302, United States",40.189455,-85.372652
438,UNITED STATES,229 E WHITNEY RD,ANCHORAGE,ALASKA,ANCHORAGE,"229 E WHITNEY RD, ANCHORAGE, ALASKA","Whitney Road, Anchorage, Alaska, 99501, United States",61.2242092,-149.8855693
439,UNITED STATES,700 E BROADWAY AVE,PIERRE,South Dakota,HUGHES,"700 E BROADWAY AVE, PIERRE, South Dakota","East Broadway Avenue, Pierre, Hughes County, South Dakota, 57501, United States",44.3664831,-100.3362371
440,UNITED STATES,129 N 2ND ST,YAKIMA,WASHINGTON,YAKIMA,"129 N 2ND ST, YAKIMA, WASHINGTON","129, North 2nd Street, Yakima, Yakima County, Washington, 98901, United States",46.60428229496424,-120.50529450668864
441,UNITED STATES,1800 27TH ST BLDG B,VERO BEACH,FLORIDA,INDIAN RIVER,"1800 27TH ST BLDG B, VERO BEACH, FLORIDA","Vero Beach, Indian River County, Florida, United States",27.6387163,-80.3975399
442,UNITED STATES,100 VIA JUANA,SANTA YNEZ,CALIFORNIA,SANTA BARBARA,"100 VIA JUANA, SANTA YNEZ, CALIFORNIA","Santa Ynez Band of Mission Indians, 100, Via Juana Road, Santa Ynez / 'alaxulapu, Santa Ynez, Santa Barbara County, CAL Fire Southern Region, California, 93460, United States",34.60390965,-120.09302228203367
443,UNITED STATES,600 S MT SHASTA BLVD,MOUNT SHASTA,CALIFORNIA,SISKIYOU,"600 S MT SHASTA BLVD, MOUNT SHASTA, CALIFORNIA","600, South Mount Shasta Boulevard, Mount Shasta, Siskiyou County, CAL Fire Northern Region, California, 96067, United States",41.308753,-122.31091
444,UNITED STATES,2200 ARLINGTON DOWNS RD,ARLINGTON,TEXAS,TARRANT,"2200 ARLINGTON DOWNS RD, ARLINGTON, TEXAS","2200, Arlington Downs Road, Arlington, Tarrant County, Texas, 76011, United States",32.750341,-97.072298
445,UNITED STATES,J.L. BAKER ST HARMON INDUSTRI,HARMON,GUAM,GUAM,"J.L. BAKER ST HARMON INDUSTRI, HARMON, GUAM","T Galleria By DFS, Guam, Pale San Vitores Road, Tamuning Municipality, Guam, 96913, United States",13.5134368,144.8062149
446,UNITED STATES,330 FELLOWSHIP RD STE 300,MOUNT LAUREL,NEW JERSEY,BURLINGTON,"330 FELLOWSHIP RD STE 300, MOUNT LAUREL, NEW JERSEY","Mount Laurel Township, Burlington County, New Jersey, 08054, United States",39.934002,-74.8909988
447,UNITED STATES,6500 ROCK SPRING DR,BETHESDA,MARYLAND,MONTGOMERY,"6500 ROCK SPRING DR, BETHESDA, MARYLAND","Ellen Brodsky DDS and Associates, 6500, Rock Spring Drive, Marymount, North Bethesda, Montgomery County, Maryland, 20817, United States",39.0265915,-77.1332087
448,UNITED STATES,11000 REGENCY PKWY STE 110,CARY,NORTH CAROLINA,WAKE,"11000 REGENCY PKWY STE 110, CARY, NORTH CAROLINA","Cary, Wake County, North Carolina, United States",35.7882893,-78.7812081
449,UNITED STATES,5 SHAW'S COVE STE 220,NEW LONDON,CONNECTICUT,NEW LONDON,"5 SHAW'S COVE STE 220, NEW LONDON, CONNECTICUT","New London, New London County, Connecticut, 06320, United States",41.3556187,-72.0997804
450,UNITED STATES,1603 S WW WHITE RD STE 604,SAN ANTONIO,TEXAS,BEXAR,"1603 S WW WHITE RD STE 604, SAN ANTONIO, TEXAS","San Antonio, Bexar County, Texas, United States",29.4246002,-98.4951405
451,UNITED STATES,2001 PERALTA ST STE F,OAKLAND,CALIFORNIA,ALAMEDA,"2001 PERALTA ST STE F, OAKLAND, CALIFORNIA","Oakland, Alameda County, CAL Fire Northern Region, California, United States",37.8044557,-122.271356
452,UNITED STATES,404 E MAIN ST,ROCKAWAY,NEW JERSEY,MORRIS,"404 E MAIN ST, ROCKAWAY, NEW JERSEY","404, East Main Street, Rockaway, Morris County, New Jersey, 07866, United States",40.89760506660028,-74.4989142096048
453,UNITED STATES,526 AVELLINO ISLES CIR APT 6302,NAPLES,FLORIDA,COLLIER,"526 AVELLINO ISLES CIR APT 6302, NAPLES, FLORIDA","Naples, Collier County, Florida, United States",26.1421976,-81.7942944
454,UNITED STATES,170 LEONARD DR,GROTON,CONNECTICUT,NEW LONDON,"170 LEONARD DR, GROTON, CONNECTICUT","Leonard Drive, Long Hill, Groton, New London County, Connecticut, 06340, United States",41.3386683,-72.0470276
455,UNITED STATES,2707 SYER RD,PORTSMOUTH,VIRGINIA,PORTSMOUTH (CITY),"2707 SYER RD, PORTSMOUTH, VIRGINIA","2707, Syer Road, Seaboard Square, Portsmouth City, Virginia, 23707, United States",36.82623280683177,-76.33073744119673
456,UNITED STATES,510 E 2ND ST,TULSA,OKLAHOMA,TULSA,"510 E 2ND ST, TULSA, OKLAHOMA","510, East 2nd Street, East Village, Tulsa, Tulsa County, Oklahoma, 74120, United States",36.156406918367345,-95.98545846938775
457,UNITED STATES,3500 CAMP BOWIE BLVD,FORT WORTH,TEXAS,TARRANT,"3500 CAMP BOWIE BLVD, FORT WORTH, TEXAS","3500, Camp Bowie Boulevard, Fort Worth, Tarrant County, Texas, 76107, United States",32.7492632,-97.36885984667586
458,UNITED STATES,STREET M LOT F,SAN JUAN,PUERTO RICO,SAN JUAN,"STREET M LOT F, SAN JUAN, PUERTO RICO","San Juan, Puerto Rico, United States",18.465299,-66.116666
459,UNITED STATES,2948 E BADGER WAY,NEW HARMONY,UTAH,WASHINGTON,"2948 E BADGER WAY, NEW HARMONY, UTAH","New Harmony, Utah, United States",37.4794243,-113.3096739
460,UNITED STATES,"16 W 22ND ST, SIXTH FLOOR",NEW YORK,NEW YORK,NEW YORK,"16 W 22ND ST, SIXTH FLOOR, NEW YORK, NEW YORK","City of New York, New York, United States",40.7127281,-74.0060152
461,UNITED STATES,202 CHURCH ST SE STE 313A,LEESBURG,VIRGINIA,LOUDOUN,"202 CHURCH ST SE STE 313A, LEESBURG, VIRGINIA","Leesburg, Loudoun County, Virginia, United States",39.1154496,-77.5645446
462,UNITED STATES,203 ROANOKE ST W,BLACKSBURG,VIRGINIA,MONTGOMERY,"203 ROANOKE ST W, BLACKSBURG, VIRGINIA","Blacksburg, Montgomery County, Virginia, United States",37.2296566,-80.4136767
463,UNITED STATES,33082 RHINE AVE,TEMECULA,CALIFORNIA,RIVERSIDE,"33082 RHINE AVE, TEMECULA, CALIFORNIA","33082, Rhine Avenue, The Fairways, Redhawk, Temecula, Riverside County, California, 92592, United States",33.46674937583316,-117.08282085078403
